,id,superficie,fecha,lat,lng,latlng_explicit,idcomunidad,idprovincia,idmunicipio,municipio,causa,causa_supuesta,causa_desc,muertos,heridos,time_ctrl,time_ext,personal,medios,gastos,perdidas,year,month,Provincias,class_per_time,class_per_trimester,geometry,index_right
31110,2005200008,2.0,2005-03-19,43.291032,-1.929057,1,1,20,903,ASTIGARRAGA,5,,0,,,280,330,10,1,,6497.0,2005,3,Gipuzkoa,Menos_de_24h,1,POINT (-1.929057 43.291032),19
31118,2005200024,3.0,2005-06-22,42.961777,-2.179196,1,1,20,15,ATAUN,5,,0,,,200,440,19,5,,11633.0,2005,6,Gipuzkoa,Menos_de_24h,2,POINT (-2.179196 42.961777),19
31119,2005200029,1.0,2005-06-05,43.301984,-2.050615,1,1,20,69,DONOSTIA-SAN SEBASTIÁN,5,,0,,,135,350,13,1,,,2005,6,Gipuzkoa,Menos_de_24h,2,POINT (-2.050615 43.301984),19
31121,2005200032,2.08,2005-06-27,43.076871,-2.513591,1,1,20,55,ARRASATE/MONDRAGÓN,5,,0,,,327,660,25,2,,10447.0,2005,6,Gipuzkoa,Menos_de_24h,2,POINT (-2.513591 43.076871),19
39764,2006200001,1.6,2006-03-15,42.995087,-2.415285,1,1,20,59,OÑATI,5,,0,,,190,200,20,1,,,2006,3,Gipuzkoa,Menos_de_24h,1,POINT (-2.415285 42.995087),19
39765,2006200002,1.5,2006-03-16,42.970758,-2.446835,1,1,20,59,OÑATI,5,,0,,,210,360,1,0,,,2006,3,Gipuzkoa,Menos_de_24h,1,POINT (-2.446835 42.970758),19
47890,2008200004,1.25,2008-02-09,42.969224,-2.440521,1,1,20,59,OÑATI,5,,0,,,180,300,14,0,,,2008,2,Gipuzkoa,Menos_de_24h,1,POINT (-2.440521 42.969224),19
52451,2009200007,1.25,2009-03-21,43.169023,-2.382294,1,1,20,65,SORALUZE/PLASENCIA DE ARMAS,5,,0,,,149,288,10,1,,5361.0,2009,3,Gipuzkoa,Menos_de_24h,1,POINT (-2.382294 43.169023),19
52457,2009200026,1.6,2009-09-14,42.998197,-2.439461,1,1,20,59,OÑATI,5,,0,,,140,300,29,2,,76.0,2009,9,Gipuzkoa,Menos_de_24h,3,POINT (-2.439461 42.998197),19
57937,2010200031,2.5,2010-06-04,42.970378,-2.48695,1,1,20,34,ESKORIATZA,5,,0,,,370,490,6,0,,,2010,6,Gipuzkoa,Menos_de_24h,2,POINT (-2.48695 42.970378),19
57941,2010200038,14.5,2010-09-03,43.204708,-2.479845,1,1,20,30,EIBAR,5,,0,,,289,570,65,5,,2547.0,2010,9,Gipuzkoa,Menos_de_24h,3,POINT (-2.479845 43.204708),19
67850,2012200013,1.7,2012-03-29,43.061772,-2.103994,1,1,20,1,ABALTZISKETA,5,,0,,,92,155,18,1,,15840.0,2012,3,Gipuzkoa,Menos_de_24h,1,POINT (-2.103994 43.061772),19
67851,2012200015,1.65,2012-04-01,43.269759,-1.823271,1,1,20,63,OIARTZUN,5,,0,,,95,115,5,0,,,2012,4,Gipuzkoa,Menos_de_24h,2,POINT (-1.823271 43.269759),19
67854,2012200029,1.74,2012-09-22,42.979443,-2.562068,1,1,20,68,LEINTZ-GATZAGA,5,,0,,,125,185,6,0,,,2012,9,Gipuzkoa,Menos_de_24h,3,POINT (-2.562068 42.979443),19
76018,2014200002,2.5,2014-01-10,43.33343216,-1.87715697,1,1,20,53,LEZO,5,,0,,,135,300,33,2,,12934.0,2014,1,Gipuzkoa,Menos_de_24h,,POINT (-1.87715697 43.33343216),19
79441,2015200029,2.0,2015-12-26,43.20394882,-2.12253378,1,1,20,14,ASTEASU,5,,0,,,325,335,10,3,,,2015,12,Gipuzkoa,Menos_de_24h,4,POINT (-2.12253378 43.20394882),19
79443,2015200032,23.5,2015-12-30,43.19847903,-2.00643444,1,1,20,9,ANDOAIN,5,,0,,,435,2595,33,5,,140740.0,2015,12,Gipuzkoa,Entre_1dia_y_1semana,4,POINT (-2.00643444 43.19847903),19
79444,2015200033,2.5,2015-12-30,43.2014708,-2.4787031,1,1,20,30,EIBAR,5,,0,,,138,195,17,2,,,2015,12,Gipuzkoa,Menos_de_24h,4,POINT (-2.4787031 43.2014708),19
4,2001010017,1.04,2001-07-20,43.091715,-3.024574,1,1,1,10,AIARA/AYALA,5,,0,,,45,75,11,2,270.0,2866.0,2001,7,Araba/Álava,Menos_de_24h,3,POINT (-3.024574 43.091715),0
6,2001010020,11.84,2001-08-01,42.586275,-2.488137,1,1,1,60,IECORA/YÉCORA,5,,0,,,130,280,26,6,2140.0,22982.0,2001,8,Araba/Álava,Menos_de_24h,3,POINT (-2.488137 42.586275),0
6949,2002010047,27.83,2002-07-27,42.749455,-2.877808,1,1,1,47,ERRIBERA BEITIA/RIBERA BAJA,5,,0,,,255,640,55,11,9209.0,91894.0,2002,7,Araba/Álava,Menos_de_24h,3,POINT (-2.877808 42.749455),0
14751,2003010015,1.0,2003-07-22,42.532802,-2.634695,1,1,1,41,NAVARIDAS,5,,0,,,105,180,1,0,25.0,834.0,2003,7,Araba/Álava,Menos_de_24h,3,POINT (-2.634695 42.532802),0
14756,2003010024,1.45,2003-08-07,42.757085,-2.42563,1,1,1,37,ARRAIA-MAEZTU,5,,0,,,90,150,21,2,822.0,2676.0,2003,8,Araba/Álava,Menos_de_24h,3,POINT (-2.42563 42.757085),0
21380,2004010010,4.02,2004-04-16,42.523444,-2.53735,1,1,1,31,LAGUARDIA,5,,0,,,225,255,6,1,865.0,4213.0,2004,4,Araba/Álava,Menos_de_24h,2,POINT (-2.53735 42.523444),0
21390,2004010041,3.5,2004-09-28,42.559696,-2.597992,1,1,1,31,LAGUARDIA,5,,0,,,165,270,6,1,313.0,315.0,2004,9,Araba/Álava,Menos_de_24h,3,POINT (-2.597992 42.559696),0
29029,2005010005,3.62,2005-03-13,42.805472,-2.576836,1,1,1,59,VITORIA-GASTEIZ,5,,0,,,295,360,12,1,832.0,10627.0,2005,3,Araba/Álava,Menos_de_24h,1,POINT (-2.576836 42.805472),0
29037,2005010021,6.08,2005-07-22,42.722471,-2.914503,1,1,1,47,ERRIBERA BEITIA/RIBERA BAJA,5,,0,,,100,237,53,11,12259.0,13499.0,2005,7,Araba/Álava,Menos_de_24h,3,POINT (-2.914503 42.722471),0
29041,2005010028,8.05,2005-08-05,42.897945,-2.506389,1,1,1,13,BARRUNDIA,5,,0,,,265,340,34,7,12008.0,57147.0,2005,8,Araba/Álava,Menos_de_24h,3,POINT (-2.506389 42.897945),0
29042,2005010029,3.8,2005-08-06,42.933449,-2.605374,1,1,1,8,ARRAZUA-UBARRUNDIA,5,,0,,,170,315,34,6,6059.0,76360.0,2005,8,Araba/Álava,Menos_de_24h,3,POINT (-2.605374 42.933449),0
29044,2005010034,7.82,2005-08-04,42.574812,-2.484368,1,1,1,60,IECORA/YÉCORA,5,,0,,,84,114,66,10,2022.0,3520.0,2005,8,Araba/Álava,Menos_de_24h,3,POINT (-2.484368 42.574812),0
29046,2005010039,2.88,2005-09-30,42.532243,-2.488578,1,1,1,32,LANTZIEGO/LANCIEGO,5,,0,,,195,300,6,1,1094.0,438.0,2005,9,Araba/Álava,Menos_de_24h,3,POINT (-2.488578 42.532243),0
51408,2009010018,23.36,2009-07-22,42.8746,-2.509917,1,1,1,13,BARRUNDIA,5,,0,,,180,360,41,9,9476.0,58065.0,2009,7,Araba/Álava,Menos_de_24h,3,POINT (-2.509917 42.8746),0
51410,2009010020,19.5,2009-07-22,42.926047,-2.613203,1,1,1,8,ARRAZUA-UBARRUNDIA,5,,0,,,305,1775,30,7,10208.0,105143.0,2009,7,Araba/Álava,Entre_1dia_y_1semana,3,POINT (-2.613203 42.926047),0
51414,2009010033,1.7,2009-08-14,42.864863,-2.394505,1,1,1,51,AGURAIN/SALVATIERRA,5,,0,,,65,110,18,7,1555.0,400.0,2009,8,Araba/Álava,Menos_de_24h,3,POINT (-2.394505 42.864863),0
61096,2011010038,3.05,2011-09-29,42.54575,-2.571543,1,1,1,31,LAGUARDIA,5,,0,,,75,225,12,3,1783.0,654.0,2011,9,Araba/Álava,Menos_de_24h,3,POINT (-2.571543 42.54575),0
66695,2012010028,49.54,2012-07-18,42.913586,-3.159111,1,1,1,55,VALDEGOVIA,5,,0,,,768,7248,56,14,63508.0,127746.0,2012,7,Araba/Álava,Entre_1dia_y_1semana,3,POINT (-3.159111 42.913586),0
78515,2015010001,1.2,2015-04-02,43.15879893,-2.96254527,1,1,1,36,LLODIO/LAUDIO,5,,0,,,389,1470,9,2,,,2015,4,Araba/Álava,Entre_1dia_y_1semana,2,POINT (-2.96254527 43.15879893),0
34,2001020039,15.0,2001-07-31,39.067155,-1.556034,1,11,2,21,CASAS DE JUAN NÚÑEZ,5,,0,,,130,1420,40,7,,4174.0,2001,7,Albacete,Menos_de_24h,3,POINT (-1.556034 39.067155),1
6967,2002020058,3.0,2002-06-28,39.160602,-1.570537,1,11,2,41,JORQUERA,5,,0,,,90,210,25,3,550.0,0.0,2002,6,Albacete,Menos_de_24h,2,POINT (-1.570537 39.160602),1
6974,2002020073,1.2,2002-07-22,38.773105,-2.548498,1,11,2,70,SALOBRE,5,,0,,,32,120,38,4,350.0,0.0,2002,7,Albacete,Menos_de_24h,3,POINT (-2.548498 38.773105),1
7214,2002060237,7.0,2002-07-14,39.237871,-1.207393,1,14,6,37,"CODOSERA, LA",5,,0,,,120,195,32,2,,1200.0,2002,7,Badajoz,Menos_de_24h,3,POINT (-1.207393 39.237871),1
14770,2003020040,2.0,2003-06-19,38.718989,-2.319504,1,11,2,47,MASEGOSO,5,,0,,,65,165,9,2,269.0,2246.0,2003,6,Albacete,Menos_de_24h,2,POINT (-2.319504 38.718989),1
14782,2003020077,250.0,2003-07-22,39.01526,-1.519945,1,11,2,40,HOYA-GONZALO,5,,0,,,1035,1710,64,11,15986.0,0.0,2003,7,Albacete,Entre_1dia_y_1semana,3,POINT (-1.519945 39.01526),1
21400,2004020049,1.0,2004-07-10,39.13599,-2.472867,1,11,2,53,MUNERA,5,,0,,,114,415,33,12,2021.0,0.0,2004,7,Albacete,Menos_de_24h,3,POINT (-2.472867 39.13599),1
21413,2004020086,1.19,2004-08-21,38.25523,-2.266888,1,11,2,55,NERPIO,5,,0,,,45,240,23,5,1336.0,0.0,2004,8,Albacete,Menos_de_24h,3,POINT (-2.266888 38.25523),1
21415,2004020090,1.5,2004-08-31,38.793679,-2.168008,1,11,2,71,SAN PEDRO,5,,0,,,36,186,21,2,447.0,2086.0,2004,8,Albacete,Menos_de_24h,3,POINT (-2.168008 38.793679),1
29065,2005020048,1.0,2005-04-01,38.57104,-2.613453,1,11,2,80,VILLAPALACIOS,5,,0,,,150,270,6,1,300.0,,2005,4,Albacete,Menos_de_24h,2,POINT (-2.613453 38.57104),1
29078,2005020086,1.0,2005-05-27,38.494411,-2.41016,1,11,2,67,RIÓPAR,5,,0,,,200,380,38,5,2700.0,,2005,5,Albacete,Menos_de_24h,2,POINT (-2.41016 38.494411),1
43641,2007020008,1.0,2007-02-27,39.195829,-1.435569,1,11,2,7,ALCALÁ DEL JUCAR,5,,0,,,55,90,9,1,,,2007,2,Albacete,Menos_de_24h,1,POINT (-1.435569 39.195829),1
43642,2007020021,1.0,2007-06-04,39.034108,-1.502118,1,11,2,64,POZO-LORENTE,5,,0,,,86,296,26,5,,,2007,6,Albacete,Menos_de_24h,2,POINT (-1.502118 39.034108),1
61102,2011020023,4.3,2011-04-08,39.178393,-1.510418,1,11,2,41,JORQUERA,5,,0,,,141,1291,19,3,,,2011,4,Albacete,Menos_de_24h,2,POINT (-1.510418 39.178393),1
61104,2011020051,38.0,2011-06-15,38.966543,-1.621747,1,11,2,40,HOYA-GONZALO,5,,0,,,187,187,25,0,,,2011,6,Albacete,Menos_de_24h,2,POINT (-1.621747 38.966543),1
61106,2011020073,1.3,2011-06-15,39.00971,-1.542143,1,11,2,39,HIGUERUELA,5,,0,,,72,87,8,0,,,2011,6,Albacete,Menos_de_24h,2,POINT (-1.542143 39.00971),1
61117,2011020209,1.5,2011-08-25,38.447785,-1.54943,1,11,2,37,HELLÍN,5,,0,,,58,1033,48,8,,,2011,8,Albacete,Menos_de_24h,3,POINT (-1.54943 38.447785),1
72236,2013020146,3.65,2013-06-26,38.968741,-1.631654,1,11,2,40,HOYA-GONZALO,5,,0,,,75,204,14,5,,,2013,6,Albacete,Menos_de_24h,2,POINT (-1.631654 38.968741),1
72237,2013020165,17.9,2013-07-02,38.967321,-1.630435,1,11,2,40,HOYA-GONZALO,5,,0,,,113,320,33,5,,,2013,7,Albacete,Menos_de_24h,3,POINT (-1.630435 38.967321),1
75322,2014020017,4.27,2014-02-01,38.56045168,-1.6306512,1,11,2,74,TOBARRA,5,,0,,,105,135,6,1,,,2014,2,Albacete,Menos_de_24h,1,POINT (-1.6306512 38.56045168),1
75326,2014020082,1.0,2014-04-17,39.01664059,-1.54367547,1,11,2,39,HIGUERUELA,5,,0,,,73,88,12,1,,,2014,4,Albacete,Menos_de_24h,2,POINT (-1.54367547 39.01664059),1
75327,2014020112,1.2,2014-05-02,38.58328612,-1.66966526,1,11,2,74,TOBARRA,5,,0,,,70,135,13,2,,,2014,5,Albacete,Menos_de_24h,2,POINT (-1.66966526 38.58328612),1
75333,2014020311,269.51,2014-09-13,38.75884927,-1.10795155,1,11,2,9,ALMANSA,5,,0,1.0,,1587,4736,335,66,,,2014,9,Albacete,Entre_1dia_y_1semana,3,POINT (-1.10795155 38.75884927),1
81,2001040001,4.73,2001-01-04,37.312787,-2.104109,1,4,4,17,ARBOLEAS,5,,0,,,235,320,15,0,,,2001,1,Almería,Menos_de_24h,,POINT (-2.104109 37.312787),3
103,2001040089,1.25,2001-08-25,37.310136,-1.758679,1,4,4,35,CUEVAS DEL ALMANZORA,5,,0,,,240,300,22,2,150.0,0.0,2001,8,Almería,Menos_de_24h,3,POINT (-1.758679 37.310136),3
105,2001040093,48.4,2001-09-02,36.999235,-2.325672,1,4,4,66,NÍJAR,5,,0,,,250,430,106,7,5050.0,0.0,2001,9,Almería,Menos_de_24h,3,POINT (-2.325672 36.999235),3
7036,2002040099,2.15,2002-10-08,36.869947,-2.657794,1,4,4,41,ENIX,5,,0,,,217,330,18,1,68.0,26.0,2002,10,Almería,Menos_de_24h,4,POINT (-2.657794 36.869947),3
14830,2003040027,4.62,2003-06-09,36.908668,-1.976244,1,4,4,66,NÍJAR,5,,0,,,88,294,24,2,766.0,60.0,2003,6,Almería,Menos_de_24h,2,POINT (-1.976244 36.908668),3
14839,2003040065,23.4,2003-07-11,36.994637,-2.705481,1,4,4,77,RÁGOL,5,,0,,,190,460,158,15,7601.0,799.0,2003,7,Almería,Menos_de_24h,3,POINT (-2.705481 36.994637),3
14842,2003040082,20.44,2003-07-30,36.959353,-2.090138,1,4,4,66,NÍJAR,5,,0,,,110,195,25,5,1959.0,245.0,2003,7,Almería,Menos_de_24h,3,POINT (-2.090138 36.959353),3
21455,2004040027,1.09,2004-06-17,37.044382,-2.242598,1,4,4,94,TURRILLAS,5,,0,,,92,362,41,4,,,2004,6,Almería,Menos_de_24h,2,POINT (-2.242598 37.044382),3
21458,2004040034,1.88,2004-06-24,37.306759,-2.225666,1,4,4,16,ANTAS,5,,0,,,75,105,27,3,621.0,40.0,2004,6,Almería,Menos_de_24h,2,POINT (-2.225666 37.306759),3
21463,2004040061,1.08,2004-07-17,37.158666,-2.038111,1,4,4,22,BÉDAR,5,,0,,,34,505,37,3,1504.0,18.0,2004,7,Almería,Menos_de_24h,3,POINT (-2.038111 37.158666),3
21474,2004040130,1.41,2004-11-29,36.961997,-2.025741,1,4,4,66,NÍJAR,5,,0,,,105,150,23,2,,,2004,11,Almería,Menos_de_24h,4,POINT (-2.025741 36.961997),3
21475,2004040131,2.0,2004-12-08,36.802796,-3.089681,1,4,4,3,ADRA,5,,0,,,180,270,21,2,,,2004,12,Almería,Menos_de_24h,4,POINT (-3.089681 36.802796),3
29127,2005040023,2.14,2005-04-15,36.995874,-2.640654,1,4,4,54,ILLAR,5,,0,,,120,270,17,3,2113.0,32.0,2005,4,Almería,Menos_de_24h,2,POINT (-2.640654 36.995874),3
29130,2005040029,1.52,2005-05-06,37.564896,-1.998898,1,4,4,99,VÉLEZ-RUBIO,5,,0,,,65,207,16,2,3843.0,,2005,5,Almería,Menos_de_24h,2,POINT (-1.998898 37.564896),3
29133,2005040034,4.08,2005-05-12,37.743186,-2.103328,1,4,4,59,LUBRÍN,5,,0,,,30,315,11,2,2556.0,60.0,2005,5,Almería,Menos_de_24h,2,POINT (-2.103328 37.743186),3
29136,2005040039,30.78,2005-05-16,37.085016,-2.133114,1,4,4,60,LUCAINENA DE LAS TORRES,5,,0,,,255,450,63,3,12133.0,462.0,2005,5,Almería,Menos_de_24h,2,POINT (-2.133114 37.085016),3
29142,2005040056,3.7,2005-06-21,37.314931,-2.053018,1,4,4,103,ZURGENA,5,,0,,,105,253,31,3,4817.0,56.0,2005,6,Almería,Menos_de_24h,2,POINT (-2.053018 37.314931),3
29145,2005040061,1.31,2005-07-01,37.086735,-2.260472,1,4,4,88,TABERNAS,5,,0,,,15,155,9,2,1036.0,20.0,2005,7,Almería,Menos_de_24h,3,POINT (-2.260472 37.086735),3
29158,2005040085,1.27,2005-08-13,36.844981,-2.040911,1,4,4,66,NÍJAR,5,,0,,,60,120,7,2,157.0,19.0,2005,8,Almería,Menos_de_24h,3,POINT (-2.040911 36.844981),3
29164,2005040117,2.0,2005-11-11,36.842519,-2.973912,1,4,4,29,BERJA,5,,0,,,120,305,5,0,342.0,56.0,2005,11,Almería,Menos_de_24h,4,POINT (-2.973912 36.842519),3
29165,2005040123,2.0,2005-12-05,37.106898,-2.539907,1,4,4,50,GÉRGAL,5,,0,,,240,359,15,2,1222.0,30.0,2005,12,Almería,Menos_de_24h,4,POINT (-2.539907 37.106898),3
38105,2006040079,10.0,2006-10-23,36.961325,-2.028367,1,4,4,66,NÍJAR,5,,0,,,300,300,22,3,,,2006,10,Almería,Menos_de_24h,4,POINT (-2.028367 36.961325),3
43676,2007040002,6.44,2007-02-13,36.95028,-2.319657,1,4,4,13,ALMERÍA,5,,0,,,240,360,28,1,,,2007,2,Almería,Menos_de_24h,1,POINT (-2.319657 36.95028),3
43677,2007040004,7.09,2007-02-18,36.849262,-2.74089,1,4,4,38,DALÍAS,5,,0,,,421,600,45,3,,,2007,2,Almería,Menos_de_24h,1,POINT (-2.74089 36.849262),3
43680,2007040017,2.37,2007-03-21,36.954279,-2.941559,1,4,4,7,ALCOLEA,5,,0,,,145,340,49,3,,,2007,3,Almería,Menos_de_24h,1,POINT (-2.941559 36.954279),3
43704,2007040076,40.07,2007-08-14,37.336925,-2.464588,1,4,4,21,BAYARQUE,5,,0,,3.0,291,691,158,15,,,2007,8,Almería,Menos_de_24h,3,POINT (-2.464588 37.336925),3
43706,2007040080,5.0,2007-08-27,36.784775,-3.078452,1,4,4,3,ADRA,5,,0,,,149,889,63,8,,,2007,8,Almería,Menos_de_24h,3,POINT (-3.078452 36.784775),3
43709,2007040098,1.0,2007-10-04,36.989799,-2.737324,1,4,4,30,CANJÁYAR,5,,0,,,71,101,20,1,,,2007,10,Almería,Menos_de_24h,4,POINT (-2.737324 36.989799),3
47091,2008040057,2.5,2008-07-12,37.20519,-2.089922,1,4,4,59,LUBRÍN,5,,0,,,46,184,36,6,,,2008,7,Almería,Menos_de_24h,3,POINT (-2.089922 37.20519),3
47093,2008040069,5.15,2008-08-08,37.093908,-2.099761,1,4,4,86,SORBAS,5,,0,,,70,250,36,6,,,2008,8,Almería,Menos_de_24h,3,POINT (-2.099761 37.093908),3
47096,2008040074,5.64,2008-08-22,37.066807,-2.141757,1,4,4,86,SORBAS,5,,0,,,123,238,39,6,,,2008,8,Almería,Menos_de_24h,3,POINT (-2.141757 37.066807),3
47099,2008040083,3.07,2008-11-24,37.205579,-1.81943,1,4,4,100,VERA,5,,0,,,150,301,9,2,,,2008,11,Almería,Menos_de_24h,4,POINT (-1.81943 37.205579),3
51463,2009040013,1.61,2009-05-17,37.14608,-2.036661,1,4,4,86,SORBAS,5,,0,,,111,1669,47,6,,,2009,5,Almería,Entre_1dia_y_1semana,2,POINT (-2.036661 37.14608),3
51466,2009040031,63.97,2009-06-16,37.2012,-2.235681,1,4,4,27,BENIZALÓN,5,,0,,,265,863,110,11,,,2009,6,Almería,Menos_de_24h,2,POINT (-2.235681 37.2012),3
51467,2009040032,40.24,2009-06-16,37.070315,-2.60147,1,4,4,5,ALBOLODUY,5,,0,,,217,1147,71,15,,,2009,6,Almería,Menos_de_24h,2,POINT (-2.60147 37.070315),3
51486,2009040065,2329.07,2009-07-23,37.113258,-1.902588,1,4,4,93,TURRE,5,,0,0.0,0.0,2346,56074,572,46,,,2009,7,Almería,Mas_de_1mes,3,POINT (-1.902588 37.113258),3
51488,2009040067,29.89,2009-07-24,37.011437,-2.778739,1,4,4,23,BEIRES,5,,0,,,97,1627,78,9,,,2009,7,Almería,Entre_1dia_y_1semana,3,POINT (-2.778739 37.011437),3
51492,2009040081,46.53,2009-08-14,37.20376,-2.472145,1,4,4,33,CASTRO DE FILABRES,5,,0,,,335,5435,193,25,,,2009,8,Almería,Entre_1dia_y_1semana,3,POINT (-2.472145 37.20376),3
57222,2010040008,13.4,2010-05-17,36.970534,-2.086994,1,4,4,66,NÍJAR,5,,0,,,112,140,18,6,,,2010,5,Almería,Menos_de_24h,2,POINT (-2.086994 36.970534),3
57223,2010040010,2.0,2010-05-22,37.370985,-1.696693,1,4,4,75,PULPÍ,5,,0,,,104,221,12,1,,,2010,5,Almería,Menos_de_24h,2,POINT (-1.696693 37.370985),3
57231,2010040024,8.67,2010-06-24,36.922912,-2.164132,1,4,4,66,NÍJAR,5,,0,,,65,90,11,2,,,2010,6,Almería,Menos_de_24h,2,POINT (-2.164132 36.922912),3
57232,2010040025,7.39,2010-06-25,36.961089,-2.135385,1,4,4,66,NÍJAR,5,,0,,,81,156,11,2,,,2010,6,Almería,Menos_de_24h,2,POINT (-2.135385 36.961089),3
57235,2010040040,9.5,2010-07-05,37.348138,-2.351084,1,4,4,76,PURCHENA,5,,0,,,183,393,126,11,,,2010,7,Almería,Menos_de_24h,3,POINT (-2.351084 37.348138),3
57243,2010040061,2.81,2010-08-01,37.432234,-2.386224,1,4,4,76,PURCHENA,5,,0,,,120,2520,57,9,,,2010,8,Almería,Entre_1dia_y_1semana,3,POINT (-2.386224 37.432234),3
57247,2010040078,5.43,2010-08-27,37.286767,-2.25105,1,4,4,58,LÍJAR,5,,0,,,190,2856,55,8,,,2010,8,Almería,Entre_1dia_y_1semana,3,POINT (-2.25105 37.286767),3
57252,2010040100,3.0,2010-10-16,36.849315,-2.122356,1,4,4,66,NÍJAR,5,,0,,,83,95,5,2,,,2010,10,Almería,Menos_de_24h,4,POINT (-2.122356 36.849315),3
61157,2011040033,1.12,2011-05-21,36.896825,-2.275384,1,4,4,13,ALMERÍA,5,,0,,,75,1615,11,2,,,2011,5,Almería,Entre_1dia_y_1semana,2,POINT (-2.275384 36.896825),3
61159,2011040047,1.83,2011-06-12,37.059475,-2.420868,1,4,4,88,TABERNAS,5,,0,,,125,220,5,2,,,2011,6,Almería,Menos_de_24h,2,POINT (-2.420868 37.059475),3
61169,2011040106,5.73,2011-08-18,36.939979,-2.15568,1,4,4,66,NÍJAR,5,,0,,,96,245,3,1,,,2011,8,Almería,Menos_de_24h,3,POINT (-2.15568 36.939979),3
61170,2011040107,10.5,2011-08-20,36.821167,-2.679562,1,4,4,102,VÍCAR,5,,0,,,311,1151,75,6,,,2011,8,Almería,Menos_de_24h,3,POINT (-2.679562 36.821167),3
61176,2011040154,15.54,2011-10-09,36.764182,-3.019462,1,4,4,3,ADRA,5,,0,,,145,1350,78,5,,,2011,10,Almería,Menos_de_24h,4,POINT (-3.019462 36.764182),3
66759,2012040037,1.44,2012-03-14,36.83511,-2.403263,1,4,4,13,ALMERÍA,5,,0,,,122,947,20,1,,,2012,3,Almería,Menos_de_24h,1,POINT (-2.403263 36.83511),3
66761,2012040058,1.48,2012-04-21,36.828083,-2.630675,1,4,4,102,VÍCAR,5,,0,,,235,295,28,2,,,2012,4,Almería,Menos_de_24h,2,POINT (-2.630675 36.828083),3
72279,2013040064,7.6,2013-06-24,36.729992,-2.650845,1,4,4,79,ROQUETAS DE MAR,5,,0,,,682,2342,71,8,,,2013,6,Almería,Entre_1dia_y_1semana,2,POINT (-2.650845 36.729992),3
78550,2015040049,2.3,2015-07-15,36.92994423,-2.82583196,1,4,4,46,FONDÓN,5,,0,,,641,747,24,2,,,2015,7,Almería,Menos_de_24h,3,POINT (-2.82583196 36.92994423),3
189,2001060002,1.5,2001-07-08,38.873265,-6.686311,1,14,6,15,BADAJOZ,5,,0,,,85,100,6,0,,,2001,7,Badajoz,Menos_de_24h,3,POINT (-6.686311 38.873265),5
194,2001060020,4.5,2001-06-29,38.921914,-6.272009,1,14,6,83,MÉRIDA,5,,0,,,75,90,7,1,,,2001,6,Badajoz,Menos_de_24h,2,POINT (-6.272009 38.921914),5
203,2001060033,2.0,2001-06-15,38.939801,-6.424752,1,14,6,46,ESPARRAGALEJO,5,,0,,,170,185,15,3,,,2001,6,Badajoz,Menos_de_24h,2,POINT (-6.424752 38.939801),5
206,2001060037,1.5,2001-06-11,39.010202,-5.673253,1,14,6,153,VILLANUEVA DE LA SERENA,5,,0,,,165,195,9,1,,,2001,6,Badajoz,Menos_de_24h,2,POINT (-5.673253 39.010202),5
209,2001060042,1.0,2001-07-07,38.886422,-6.95214,1,14,6,15,BADAJOZ,5,,0,,,15,30,1,0,,,2001,7,Badajoz,Menos_de_24h,3,POINT (-6.95214 38.886422),5
210,2001060043,9.0,2001-06-29,39.245986,-5.071791,1,14,6,63,HERRERA DEL DUQUE,5,,0,,,40,80,27,5,,,2001,6,Badajoz,Menos_de_24h,2,POINT (-5.071791 39.245986),5
211,2001060044,1.0,2001-06-28,38.223273,-6.320502,1,14,6,52,FUENTE DE CANTOS,5,,0,,,55,75,12,1,,,2001,6,Badajoz,Menos_de_24h,2,POINT (-6.320502 38.223273),5
214,2001060048,90.0,2001-07-02,38.893114,-6.905796,1,14,6,15,BADAJOZ,5,,0,,,165,205,34,2,,,2001,7,Badajoz,Menos_de_24h,3,POINT (-6.905796 38.893114),5
217,2001060053,10.0,2001-06-27,38.756323,-5.817104,1,14,6,146,VALLE DE LA SERENA,5,,0,,,0,80,9,2,,,2001,6,Badajoz,Menos_de_24h,2,POINT (-5.817104 38.756323),5
218,2001060055,120.0,2001-06-29,38.504151,-6.382963,1,14,6,54,FUENTE DEL MAESTRE,5,,0,,,115,160,28,1,,,2001,6,Badajoz,Menos_de_24h,2,POINT (-6.382963 38.504151),5
219,2001060056,3.0,2001-06-24,38.989277,-5.795627,1,14,6,153,VILLANUEVA DE LA SERENA,5,,0,,,75,85,10,1,,,2001,6,Badajoz,Menos_de_24h,2,POINT (-5.795627 38.989277),5
220,2001060059,5.0,2001-06-30,39.061532,-5.690673,1,14,6,44,DON BENITO,5,,0,,,0,77,6,1,,,2001,6,Badajoz,Menos_de_24h,2,POINT (-5.690673 39.061532),5
223,2001060063,4.0,2001-06-27,38.892292,-6.970453,1,14,6,15,BADAJOZ,5,,0,,,85,85,6,1,,,2001,6,Badajoz,Menos_de_24h,2,POINT (-6.970453 38.892292),5
225,2001060068,2.0,2001-06-23,38.258906,-5.874404,1,14,6,3,AHILLONES,5,,0,,,0,35,11,1,,,2001,6,Badajoz,Menos_de_24h,2,POINT (-5.874404 38.258906),5
226,2001060069,2.0,2001-06-25,38.149947,-5.910692,1,14,6,53,FUENTE DEL ARCO,5,,0,,,115,175,12,2,,,2001,6,Badajoz,Menos_de_24h,2,POINT (-5.910692 38.149947),5
227,2001060071,50.0,2001-06-23,38.533248,-6.680889,1,14,6,117,SALVATIERRA DE LOS BARROS,5,,0,,,490,1120,38,5,,,2001,6,Badajoz,Menos_de_24h,2,POINT (-6.680889 38.533248),5
229,2001060073,27.0,2001-06-22,38.434316,-6.4525,1,14,6,158,ZAFRA,5,,0,,,170,830,55,5,,1881.0,2001,6,Badajoz,Menos_de_24h,2,POINT (-6.4525 38.434316),5
230,2001060074,3.5,2001-06-19,38.134589,-6.690921,1,14,6,67,HIGUERA LA REAL,5,,0,,,90,105,23,2,,,2001,6,Badajoz,Menos_de_24h,2,POINT (-6.690921 38.134589),5
233,2001060077,1.0,2001-06-19,39.265277,-5.066158,1,14,6,35,CASTILBLANCO,5,,0,,,25,40,16,2,,,2001,6,Badajoz,Menos_de_24h,2,POINT (-5.066158 39.265277),5
234,2001060078,6.5,2001-06-18,39.033892,-5.79705,1,14,6,44,DON BENITO,5,,0,,,130,150,7,1,,,2001,6,Badajoz,Menos_de_24h,2,POINT (-5.79705 39.033892),5
235,2001060079,1.5,2001-06-16,38.704362,-5.768623,1,14,6,146,VALLE DE LA SERENA,5,,0,,,105,135,13,2,,,2001,6,Badajoz,Menos_de_24h,2,POINT (-5.768623 38.704362),5
236,2001060082,3.0,2001-06-21,38.870612,-6.293564,1,14,6,43,DON ÁLVARO,5,,0,,,70,83,3,1,,,2001,6,Badajoz,Menos_de_24h,2,POINT (-6.293564 38.870612),5
237,2001060083,4.0,2001-06-22,38.878807,-6.297287,1,14,6,43,DON ÁLVARO,5,,0,,,50,80,5,1,,,2001,6,Badajoz,Menos_de_24h,2,POINT (-6.297287 38.878807),5
240,2001060089,37.4,2001-06-18,39.012267,-6.585311,1,14,6,88,MONTIJO,5,,0,,,245,275,33,4,,,2001,6,Badajoz,Menos_de_24h,2,POINT (-6.585311 39.012267),5
249,2001060105,1.2,2001-05-29,38.87455,-6.407517,1,14,6,83,MÉRIDA,5,,0,,,70,85,12,1,,,2001,5,Badajoz,Menos_de_24h,2,POINT (-6.407517 38.87455),5
251,2001060108,1.5,2001-07-06,39.166331,-5.051916,1,14,6,63,HERRERA DEL DUQUE,5,,0,,,30,80,23,4,,,2001,7,Badajoz,Menos_de_24h,3,POINT (-5.051916 39.166331),5
252,2001060110,4.0,2001-06-01,38.379928,-6.019732,1,14,6,139,VALENCIA DE LAS TORRES,5,,0,,,110,120,53,4,,,2001,6,Badajoz,Menos_de_24h,2,POINT (-6.019732 38.379928),5
254,2001060113,1.5,2001-06-11,39.027661,-5.59635,1,14,6,1,ACEDERA,5,,0,,,60,90,2,0,,,2001,6,Badajoz,Menos_de_24h,2,POINT (-5.59635 39.027661),5
257,2001060119,14.0,2001-06-16,38.970157,-6.352098,1,14,6,83,MÉRIDA,5,,0,,,165,200,33,3,,,2001,6,Badajoz,Menos_de_24h,2,POINT (-6.352098 38.970157),5
258,2001060121,2.5,2001-06-18,38.948211,-6.29869,1,14,6,83,MÉRIDA,5,,0,,,55,65,5,1,,,2001,6,Badajoz,Menos_de_24h,2,POINT (-6.29869 38.948211),5
260,2001060125,6.0,2001-07-23,38.994097,-6.497827,1,14,6,83,MÉRIDA,5,,0,,,110,130,10,1,,,2001,7,Badajoz,Menos_de_24h,3,POINT (-6.497827 38.994097),5
262,2001060129,1.0,2001-07-02,38.014096,-6.246379,1,14,6,85,MONESTERIO,5,,0,,,90,120,12,1,,,2001,7,Badajoz,Menos_de_24h,3,POINT (-6.246379 38.014096),5
264,2001060133,55.0,2001-06-03,38.455722,-6.192388,1,14,6,68,HINOJOSA DEL VALLE,5,,0,,,225,270,27,1,,24287.0,2001,6,Badajoz,Menos_de_24h,2,POINT (-6.192388 38.455722),5
268,2001060137,10.0,2001-07-04,38.25397,-5.666903,1,14,6,14,AZUAGA,5,,0,,,0,119,21,1,,,2001,7,Badajoz,Menos_de_24h,3,POINT (-5.666903 38.25397),5
269,2001060139,4.0,2001-07-17,38.678785,-6.465748,1,14,6,2,ACEUCHAL,5,,0,,,0,50,1,0,,,2001,7,Badajoz,Menos_de_24h,3,POINT (-6.465748 38.678785),5
273,2001060154,1.0,2001-07-15,38.873594,-6.993808,1,14,6,15,BADAJOZ,5,,0,,,30,45,4,1,,,2001,7,Badajoz,Menos_de_24h,3,POINT (-6.993808 38.873594),5
275,2001060156,3.0,2001-07-13,38.734511,-6.910149,1,14,6,15,BADAJOZ,5,,0,,,60,75,12,2,,,2001,7,Badajoz,Menos_de_24h,3,POINT (-6.910149 38.734511),5
276,2001060157,1.0,2001-07-13,39.340924,-5.09333,1,14,6,35,CASTILBLANCO,5,,0,,,30,55,91,4,,,2001,7,Badajoz,Menos_de_24h,3,POINT (-5.09333 39.340924),5
279,2001060166,29.7,2001-07-13,38.621994,-6.643174,1,14,6,121,SANTA MARTA,5,,0,,,125,130,17,2,,,2001,7,Badajoz,Menos_de_24h,3,POINT (-6.643174 38.621994),5
280,2001060167,14.54,2001-07-05,38.500308,-6.375076,1,14,6,122,"SANTOS DE MAIMONA, LOS",5,,0,,,840,930,38,3,,,2001,7,Badajoz,Menos_de_24h,3,POINT (-6.375076 38.500308),5
281,2001060168,1.0,2001-07-21,38.865912,-6.980977,1,14,6,15,BADAJOZ,5,,0,,,30,45,4,1,,,2001,7,Badajoz,Menos_de_24h,3,POINT (-6.980977 38.865912),5
284,2001060174,1.0,2001-07-21,38.865841,-6.979988,1,14,6,15,BADAJOZ,5,,0,,,45,140,10,2,,,2001,7,Badajoz,Menos_de_24h,3,POINT (-6.979988 38.865841),5
286,2001060176,1.0,2001-07-30,38.85205,-6.695145,1,14,6,128,TALAVERA LA REAL,5,,0,,,65,70,6,0,,,2001,7,Badajoz,Menos_de_24h,3,POINT (-6.695145 38.85205),5
288,2001060178,3.0,2001-06-29,38.412631,-6.463797,1,14,6,158,ZAFRA,5,,0,,,80,110,9,1,,,2001,6,Badajoz,Menos_de_24h,2,POINT (-6.463797 38.412631),5
290,2001060180,1.5,2001-07-10,38.897767,-6.970793,1,14,6,15,BADAJOZ,5,,0,,,0,45,8,0,,,2001,7,Badajoz,Menos_de_24h,3,POINT (-6.970793 38.897767),5
291,2001060181,12.0,2001-06-22,38.776696,-6.513572,1,14,6,126,SOLANA DE LOS BARROS,5,,0,,,230,270,13,2,,,2001,6,Badajoz,Menos_de_24h,2,POINT (-6.513572 38.776696),5
294,2001060189,7.0,2001-07-20,38.699397,-5.524402,1,14,6,36,CASTUERA,5,,0,,,70,90,12,2,,,2001,7,Badajoz,Menos_de_24h,3,POINT (-5.524402 38.699397),5
295,2001060190,5.0,2001-07-16,38.683757,-5.779265,1,14,6,146,VALLE DE LA SERENA,5,,0,,,110,120,15,3,,,2001,7,Badajoz,Menos_de_24h,3,POINT (-5.779265 38.683757),5
296,2001060197,3.0,2001-07-18,39.092338,-6.88242,1,14,6,15,BADAJOZ,5,,0,,,26,46,23,4,,,2001,7,Badajoz,Menos_de_24h,3,POINT (-6.88242 39.092338),5
298,2001060201,6.0,2001-08-02,38.541564,-6.664515,1,14,6,89,"MORERA, LA",5,,0,,,140,470,44,2,,,2001,8,Badajoz,Menos_de_24h,3,POINT (-6.664515 38.541564),5
302,2001060210,3.0,2001-08-02,39.237758,-7.224729,1,14,6,37,"CODOSERA, LA",5,,0,,,29,64,24,2,,,2001,8,Badajoz,Menos_de_24h,3,POINT (-7.224729 39.237758),5
303,2001060211,15.1,2001-08-05,38.118558,-6.055771,1,14,6,105,PUEBLA DEL MAESTRE,5,,0,,,85,100,16,1,,,2001,8,Badajoz,Menos_de_24h,3,POINT (-6.055771 38.118558),5
307,2001060219,4.0,2001-08-15,39.027296,-5.795624,1,14,6,44,DON BENITO,5,,0,,,155,180,13,2,,,2001,8,Badajoz,Menos_de_24h,3,POINT (-5.795624 39.027296),5
308,2001060221,12.0,2001-08-10,38.841577,-6.806763,1,14,6,15,BADAJOZ,5,,0,,,118,130,7,1,,,2001,8,Badajoz,Menos_de_24h,3,POINT (-6.806763 38.841577),5
309,2001060222,4.0,2001-08-08,38.844181,-6.805785,1,14,6,15,BADAJOZ,5,,0,,,58,90,9,1,,,2001,8,Badajoz,Menos_de_24h,3,POINT (-6.805785 38.844181),5
310,2001060223,85.49,2001-08-06,38.531348,-6.944686,1,14,6,16,BARCARROTA,5,,0,,,255,315,37,6,,18920.0,2001,8,Badajoz,Menos_de_24h,3,POINT (-6.944686 38.531348),5
312,2001060227,32.41,2001-08-11,38.683602,-5.441278,1,14,6,18,BENQUERENCIA DE LA SERENA,5,,0,,,420,435,50,8,,,2001,8,Badajoz,Menos_de_24h,3,POINT (-5.441278 38.683602),5
314,2001060230,25.0,2001-07-01,39.138051,-6.955893,1,14,6,6,ALBURQUERQUE,5,,0,,,115,185,29,4,,8096.0,2001,7,Badajoz,Menos_de_24h,3,POINT (-6.955893 39.138051),5
315,2001060231,72.0,2001-07-02,39.181508,-6.988115,1,14,6,6,ALBURQUERQUE,5,,0,,,190,250,38,4,,,2001,7,Badajoz,Menos_de_24h,3,POINT (-6.988115 39.181508),5
317,2001060233,1.0,2001-08-17,38.965537,-5.876811,1,14,6,44,DON BENITO,5,,0,,,20,30,12,1,,,2001,8,Badajoz,Menos_de_24h,3,POINT (-5.876811 38.965537),5
318,2001060236,68.64,2001-07-01,39.074782,-6.893637,1,14,6,15,BADAJOZ,5,,0,,,260,440,38,7,,,2001,7,Badajoz,Menos_de_24h,3,POINT (-6.893637 39.074782),5
320,2001060239,3.0,2001-08-19,38.943323,-6.348725,1,14,6,83,MÉRIDA,5,,0,,,40,65,5,2,,,2001,8,Badajoz,Menos_de_24h,3,POINT (-6.348725 38.943323),5
322,2001060242,2.5,2001-08-29,39.024357,-6.924994,1,14,6,15,BADAJOZ,5,,0,,,85,95,12,0,,,2001,8,Badajoz,Menos_de_24h,3,POINT (-6.924994 39.024357),5
323,2001060245,1.5,2001-08-24,38.95829,-6.248112,1,14,6,135,TRUJILLANOS,5,,0,,,35,90,12,1,,,2001,8,Badajoz,Menos_de_24h,3,POINT (-6.248112 38.95829),5
326,2001060248,3.5,2001-08-20,38.575233,-6.991014,1,14,6,129,TÁLIGA,5,,0,,,30,65,56,1,,,2001,8,Badajoz,Menos_de_24h,3,POINT (-6.991014 38.575233),5
327,2001060249,20.0,2001-08-19,39.307989,-5.217598,1,14,6,137,VALDECABALLEROS,5,,0,,,60,75,33,5,,,2001,8,Badajoz,Menos_de_24h,3,POINT (-5.217598 39.307989),5
328,2001060254,15.0,2001-08-06,38.877723,-6.807105,1,14,6,128,TALAVERA LA REAL,5,,0,,,90,135,6,2,,,2001,8,Badajoz,Menos_de_24h,3,POINT (-6.807105 38.877723),5
330,2001060258,14.0,2001-08-25,38.900048,-6.359318,1,14,6,83,MÉRIDA,5,,0,,,60,170,31,4,,,2001,8,Badajoz,Menos_de_24h,3,POINT (-6.359318 38.900048),5
331,2001060259,1.0,2001-07-09,39.059647,-6.325645,1,14,6,9,ALJUCÉN,5,,0,,,33,83,16,0,,,2001,7,Badajoz,Menos_de_24h,3,POINT (-6.325645 39.059647),5
334,2001060264,5.5,2001-09-03,38.85169,-6.943066,1,14,6,15,BADAJOZ,5,,0,,,346,346,18,3,,,2001,9,Badajoz,Menos_de_24h,3,POINT (-6.943066 38.85169),5
337,2001060271,25.59,2001-08-01,38.78862,-7.132009,1,14,6,95,OLIVENZA,5,,0,,,180,210,13,1,,,2001,8,Badajoz,Menos_de_24h,3,POINT (-7.132009 38.78862),5
338,2001060272,2.0,2001-07-23,38.077013,-6.526052,1,14,6,55,FUENTES DE LEÓN,5,,0,,,25,70,21,1,,,2001,7,Badajoz,Menos_de_24h,3,POINT (-6.526052 38.077013),5
341,2001060277,17.0,2001-08-25,38.21055,-6.309069,1,14,6,52,FUENTE DE CANTOS,5,,0,,,120,165,12,2,,,2001,8,Badajoz,Menos_de_24h,3,POINT (-6.309069 38.21055),5
344,2001060281,2.0,2001-09-01,38.191996,-6.812179,1,14,6,70,JEREZ DE LOS CABALLEROS,5,,0,,,220,390,29,2,,,2001,9,Badajoz,Menos_de_24h,3,POINT (-6.812179 38.191996),5
346,2001060286,5.0,2001-08-08,38.809056,-6.324706,1,14,6,83,MÉRIDA,5,,0,,,150,315,30,2,,,2001,8,Badajoz,Menos_de_24h,3,POINT (-6.324706 38.809056),5
347,2001060287,10.0,2001-08-23,38.429801,-5.678001,1,14,6,14,AZUAGA,5,,0,,,195,215,33,7,,,2001,8,Badajoz,Menos_de_24h,3,POINT (-5.678001 38.429801),5
349,2001060290,3.0,2001-08-20,38.832158,-6.873278,1,14,6,15,BADAJOZ,5,,0,,,60,68,9,1,,,2001,8,Badajoz,Menos_de_24h,3,POINT (-6.873278 38.832158),5
350,2001060291,1.5,2001-08-26,38.82968,-6.836491,1,14,6,15,BADAJOZ,5,,0,,,85,95,4,1,,,2001,8,Badajoz,Menos_de_24h,3,POINT (-6.836491 38.82968),5
352,2001060299,321.0,2001-07-02,39.06145,-6.400159,1,14,6,83,MÉRIDA,5,,0,,,400,400,68,17,,,2001,7,Badajoz,Menos_de_24h,3,POINT (-6.400159 39.06145),5
353,2001060300,96.05,2001-07-02,39.064914,-6.371048,1,14,6,83,MÉRIDA,5,,0,,,390,390,62,11,,,2001,7,Badajoz,Menos_de_24h,3,POINT (-6.371048 39.064914),5
354,2001060301,3.5,2001-09-02,38.65497,-5.601205,1,14,6,47,ESPARRAGOSA DE LA SERENA,5,,0,,,55,95,27,2,,,2001,9,Badajoz,Menos_de_24h,3,POINT (-5.601205 38.65497),5
355,2001060304,3.0,2001-09-07,38.820442,-6.088527,1,14,6,41,CRISTINA,5,,0,,,70,80,26,2,,,2001,9,Badajoz,Menos_de_24h,3,POINT (-6.088527 38.820442),5
356,2001060314,1.0,2001-08-16,38.851157,-6.947091,1,14,6,15,BADAJOZ,5,,0,,,20,30,3,1,,,2001,8,Badajoz,Menos_de_24h,3,POINT (-6.947091 38.851157),5
358,2001060316,76.6,2001-06-02,38.856916,-5.196427,1,14,6,23,CABEZA DEL BUEY,5,,0,,,95,145,49,3,,,2001,6,Badajoz,Menos_de_24h,2,POINT (-5.196427 38.856916),5
360,2001060319,5.0,2001-09-10,39.144491,-6.372184,1,14,6,83,MÉRIDA,5,,0,,,75,145,59,1,,,2001,9,Badajoz,Menos_de_24h,3,POINT (-6.372184 39.144491),5
361,2001060324,2.0,2001-09-03,38.686886,-6.182106,1,14,6,98,PALOMAS,5,,0,,,40,40,18,2,,,2001,9,Badajoz,Menos_de_24h,3,POINT (-6.182106 38.686886),5
364,2001060329,50.0,2001-07-17,39.005926,-5.938141,1,14,6,44,DON BENITO,5,,0,,,70,90,14,4,,,2001,7,Badajoz,Menos_de_24h,3,POINT (-5.938141 39.005926),5
365,2001060330,97.0,2001-08-01,38.620304,-7.168224,1,14,6,95,OLIVENZA,5,,0,,,240,570,26,13,,,2001,8,Badajoz,Menos_de_24h,3,POINT (-7.168224 38.620304),5
366,2001060331,85.0,2001-06-22,38.481164,-7.007064,1,14,6,7,ALCONCHEL,5,,0,,,240,270,53,4,,,2001,6,Badajoz,Menos_de_24h,2,POINT (-7.007064 38.481164),5
367,2001060333,2.0,2001-08-31,38.352562,-6.680545,1,14,6,70,JEREZ DE LOS CABALLEROS,5,,0,,,25,25,15,1,,,2001,8,Badajoz,Menos_de_24h,3,POINT (-6.680545 38.352562),5
369,2001060335,1.5,2001-09-13,38.77988,-5.878515,1,14,6,44,DON BENITO,5,,0,,,45,60,13,1,,,2001,9,Badajoz,Menos_de_24h,3,POINT (-5.878515 38.77988),5
370,2001060336,1.0,2001-09-14,38.9085,-6.96569,1,14,6,15,BADAJOZ,5,,0,,,225,225,6,1,,,2001,9,Badajoz,Menos_de_24h,3,POINT (-6.96569 38.9085),5
371,2001060337,1.0,2001-09-15,38.627059,-6.792859,1,14,6,131,TORRE DE MIGUEL SESMERO,5,,0,,,120,120,2,0,,,2001,9,Badajoz,Menos_de_24h,3,POINT (-6.792859 38.627059),5
375,2001060346,2.5,2001-09-14,38.51462,-6.615671,1,14,6,99,"PARRA, LA",5,,0,,,210,570,18,2,,,2001,9,Badajoz,Menos_de_24h,3,POINT (-6.615671 38.51462),5
376,2001060352,1.0,2001-09-20,38.896069,-6.933046,1,14,6,15,BADAJOZ,5,,0,,,150,165,4,1,,,2001,9,Badajoz,Menos_de_24h,3,POINT (-6.933046 38.896069),5
377,2001060353,1.0,2001-06-26,38.104558,-6.05224,1,14,6,105,PUEBLA DEL MAESTRE,5,,0,,,75,90,11,1,,,2001,6,Badajoz,Menos_de_24h,2,POINT (-6.05224 38.104558),5
380,2001060360,2.0,2001-07-04,38.687321,-6.417349,1,14,6,11,ALMENDRALEJO,5,,0,,,0,90,3,1,,,2001,7,Badajoz,Menos_de_24h,3,POINT (-6.417349 38.687321),5
382,2001060363,36.93,2001-08-06,38.58515,-6.548882,1,14,6,152,VILLALBA DE LOS BARROS,5,,0,,,0,120,10,1,,300.0,2001,8,Badajoz,Menos_de_24h,3,POINT (-6.548882 38.58515),5
383,2001060365,44.0,2001-08-07,38.498781,-6.46854,1,14,6,54,FUENTE DEL MAESTRE,5,,0,,,0,210,16,2,,12000.0,2001,8,Badajoz,Menos_de_24h,3,POINT (-6.46854 38.498781),5
384,2001060366,18.0,2001-08-10,39.1246,-5.28415,1,14,6,156,VILLAR DE RENA,5,,0,,,115,145,12,0,,,2001,8,Badajoz,Menos_de_24h,3,POINT (-5.28415 39.1246),5
385,2001060369,11.0,2001-08-11,38.808875,-5.273084,1,14,6,28,CAMPANARIO,5,,0,,,50,70,11,6,,,2001,8,Badajoz,Menos_de_24h,3,POINT (-5.273084 38.808875),5
386,2001060370,1.0,2001-08-11,38.592736,-6.49315,1,14,6,152,VILLALBA DE LOS BARROS,5,,0,,,0,81,4,1,,6.0,2001,8,Badajoz,Menos_de_24h,3,POINT (-6.49315 38.592736),5
389,2001060374,1.0,2001-08-25,38.571518,-6.247883,1,14,6,113,RIBERA DEL FRESNO,5,,0,,,0,80,7,1,,,2001,8,Badajoz,Menos_de_24h,3,POINT (-6.247883 38.571518),5
390,2001060376,2.0,2001-09-07,38.680358,-6.326037,1,14,6,11,ALMENDRALEJO,5,,0,,,95,125,3,0,,,2001,9,Badajoz,Menos_de_24h,3,POINT (-6.326037 38.680358),5
391,2001060377,1.0,2001-09-11,38.587977,-6.220393,1,14,6,106,PUEBLA DEL PRIOR,5,,0,,,0,80,7,0,,,2001,9,Badajoz,Menos_de_24h,3,POINT (-6.220393 38.587977),5
392,2001060380,1.0,2001-09-15,38.759133,-6.128844,1,14,6,94,OLIVA DE MÉRIDA,5,,0,,,0,90,9,1,,3.0,2001,9,Badajoz,Menos_de_24h,3,POINT (-6.128844 38.759133),5
393,2001060381,1.3,2001-09-15,39.225331,-4.724995,1,14,6,157,VILLARTA DE LOS MONTES,5,,0,,,30,60,13,2,,,2001,9,Badajoz,Menos_de_24h,3,POINT (-4.724995 39.225331),5
396,2001060386,1.25,2001-09-20,39.203729,-7.173033,1,14,6,37,"CODOSERA, LA",5,,0,,,45,120,67,2,,,2001,9,Badajoz,Menos_de_24h,3,POINT (-7.173033 39.203729),5
397,2001060388,1.0,2001-09-20,38.672549,-6.209768,1,14,6,113,RIBERA DEL FRESNO,5,,0,,,0,60,6,0,,,2001,9,Badajoz,Menos_de_24h,3,POINT (-6.209768 38.672549),5
399,2001060395,2.0,2001-10-02,39.042759,-6.671824,1,14,6,115,"ROCA DE LA SIERRA, LA",5,,0,,,15,55,5,0,,,2001,10,Badajoz,Menos_de_24h,4,POINT (-6.671824 39.042759),5
402,2001060398,1.5,2001-10-04,38.698921,-5.486099,1,14,6,18,BENQUERENCIA DE LA SERENA,5,,0,,,49,85,12,1,,,2001,10,Badajoz,Menos_de_24h,4,POINT (-5.486099 38.698921),5
404,2001060402,1.5,2001-10-11,38.804942,-6.879938,1,14,6,15,BADAJOZ,5,,0,,,105,105,5,1,,,2001,10,Badajoz,Menos_de_24h,4,POINT (-6.879938 38.804942),5
7096,2002060003,3.0,2002-05-29,38.579029,-5.488845,1,14,6,87,MONTERRUBIO DE LA SERENA,5,,0,,,255,315,17,3,,,2002,5,Badajoz,Menos_de_24h,2,POINT (-5.488845 38.579029),5
7097,2002060007,10.0,2002-06-08,38.754938,-6.121326,1,14,6,94,OLIVA DE MÉRIDA,5,,0,,,220,405,31,4,,,2002,6,Badajoz,Menos_de_24h,2,POINT (-6.121326 38.754938),5
7098,2002060009,3.0,2002-06-08,38.937779,-6.295625,1,14,6,83,MÉRIDA,5,,0,,,35,40,11,0,,72.0,2002,6,Badajoz,Menos_de_24h,2,POINT (-6.295625 38.937779),5
7106,2002060026,11.0,2002-06-11,39.134667,-6.829093,1,14,6,155,VILLAR DEL REY,5,,0,,,133,305,43,4,,5508.0,2002,6,Badajoz,Menos_de_24h,2,POINT (-6.829093 39.134667),5
7108,2002060031,7.0,2002-06-10,38.894952,-6.305091,1,14,6,83,MÉRIDA,5,,0,,,75,90,15,2,,1440.0,2002,6,Badajoz,Menos_de_24h,2,POINT (-6.305091 38.894952),5
7114,2002060045,3.0,2002-06-24,39.01147,-5.714306,1,14,6,153,VILLANUEVA DE LA SERENA,5,,0,,,105,115,9,1,,720.0,2002,6,Badajoz,Menos_de_24h,2,POINT (-5.714306 39.01147),5
7115,2002060046,3.5,2002-06-24,38.881717,-7.018353,1,14,6,15,BADAJOZ,5,,0,,,33,39,4,1,,840.0,2002,6,Badajoz,Menos_de_24h,2,POINT (-7.018353 38.881717),5
7116,2002060047,1.5,2002-06-23,38.945456,-6.07646,1,14,6,138,VALDETORRES,5,,0,,,105,140,6,0,,,2002,6,Badajoz,Menos_de_24h,2,POINT (-6.07646 38.945456),5
7118,2002060050,2.0,2002-06-22,38.808419,-6.793306,1,14,6,15,BADAJOZ,5,,0,,,30,45,6,1,,480.0,2002,6,Badajoz,Menos_de_24h,2,POINT (-6.793306 38.808419),5
7119,2002060051,15.0,2002-06-22,38.844194,-6.913153,1,14,6,15,BADAJOZ,5,,0,,,68,83,10,2,,3600.0,2002,6,Badajoz,Menos_de_24h,2,POINT (-6.913153 38.844194),5
7121,2002060053,2.0,2002-06-21,38.895765,-6.329501,1,14,6,83,MÉRIDA,5,,0,,,60,85,31,2,,600.0,2002,6,Badajoz,Menos_de_24h,2,POINT (-6.329501 38.895765),5
7126,2002060061,2.0,2002-06-18,38.705571,-5.792424,1,14,6,146,VALLE DE LA SERENA,5,,0,,,50,55,8,1,,480.0,2002,6,Badajoz,Menos_de_24h,2,POINT (-5.792424 38.705571),5
7127,2002060062,2.0,2002-06-18,39.307867,-6.808302,1,14,6,6,ALBURQUERQUE,5,,0,,,45,120,3,2,,720.0,2002,6,Badajoz,Menos_de_24h,2,POINT (-6.808302 39.307867),5
7129,2002060065,1.0,2002-06-15,39.100333,-6.021209,1,14,6,44,DON BENITO,5,,0,,,170,195,6,1,,,2002,6,Badajoz,Menos_de_24h,2,POINT (-6.021209 39.100333),5
7130,2002060066,5.5,2002-06-15,38.947312,-6.916466,1,14,6,15,BADAJOZ,5,,0,,,105,125,24,3,,840.0,2002,6,Badajoz,Menos_de_24h,2,POINT (-6.916466 38.947312),5
7131,2002060067,4.0,2002-06-15,38.816373,-7.10628,1,14,6,15,BADAJOZ,5,,0,,,37,52,17,3,,960.0,2002,6,Badajoz,Menos_de_24h,2,POINT (-7.10628 38.816373),5
7137,2002060074,11.07,2002-06-30,39.182941,-4.992466,1,14,6,63,HERRERA DEL DUQUE,5,,0,,,130,160,55,6,,2657.0,2002,6,Badajoz,Menos_de_24h,2,POINT (-4.992466 39.182941),5
7138,2002060076,18.0,2002-06-30,38.254827,-5.686977,1,14,6,14,AZUAGA,5,,0,,,90,95,13,2,,4320.0,2002,6,Badajoz,Menos_de_24h,2,POINT (-5.686977 38.254827),5
7157,2002060102,8.0,2002-07-14,38.62191,-7.169527,1,14,6,95,OLIVENZA,5,,0,,,120,155,26,3,,1920.0,2002,7,Badajoz,Menos_de_24h,3,POINT (-7.169527 38.62191),5
7159,2002060106,6.0,2002-07-06,38.588709,-6.54456,1,14,6,152,VILLALBA DE LOS BARROS,5,,0,,,40,65,13,1,,2160.0,2002,7,Badajoz,Menos_de_24h,3,POINT (-6.54456 38.588709),5
7161,2002060109,1.0,2002-07-06,38.92375,-6.312305,1,14,6,83,MÉRIDA,5,,0,,,60,80,12,3,,1680.0,2002,7,Badajoz,Menos_de_24h,3,POINT (-6.312305 38.92375),5
7162,2002060110,1.6,2002-07-07,38.902375,-6.226638,1,14,6,145,VALVERDE DE MÉRIDA,5,,0,,,30,45,6,1,,,2002,7,Badajoz,Menos_de_24h,3,POINT (-6.226638 38.902375),5
7170,2002060132,4.0,2002-07-09,39.011476,-6.005968,1,14,6,120,SANTA AMALIA,5,,0,,,70,90,6,1,,960.0,2002,7,Badajoz,Menos_de_24h,3,POINT (-6.005968 39.011476),5
7171,2002060133,18.2,2002-07-13,38.92283,-6.215461,1,14,6,145,VALVERDE DE MÉRIDA,5,,0,,,105,195,44,7,,2184.0,2002,7,Badajoz,Menos_de_24h,3,POINT (-6.215461 38.92283),5
7173,2002060135,16.4,2002-07-07,38.136667,-6.592969,1,14,6,21,BODONAL DE LA SIERRA,5,,0,,,120,132,81,2,,3936.0,2002,7,Badajoz,Menos_de_24h,3,POINT (-6.592969 38.136667),5
7174,2002060136,238.2,2002-07-02,38.281173,-6.31188,1,14,6,52,FUENTE DE CANTOS,5,,0,,,160,190,64,4,,57168.0,2002,7,Badajoz,Menos_de_24h,3,POINT (-6.31188 38.281173),5
7178,2002060144,5.0,2002-07-16,38.921927,-6.410982,1,14,6,83,MÉRIDA,5,,0,,,30,40,1,0,,,2002,7,Badajoz,Menos_de_24h,3,POINT (-6.410982 38.921927),5
7179,2002060145,1.5,2002-07-16,38.918962,-6.439922,1,14,6,83,MÉRIDA,5,,0,,,100,280,9,0,,70.0,2002,7,Badajoz,Menos_de_24h,3,POINT (-6.439922 38.918962),5
7182,2002060154,9.0,2002-07-13,39.049791,-6.900273,1,14,6,15,BADAJOZ,5,,0,,,175,205,45,4,,1920.0,2002,7,Badajoz,Menos_de_24h,3,POINT (-6.900273 39.049791),5
7183,2002060155,3.0,2002-07-13,38.89556,-6.746867,1,14,6,103,PUEBLA DE LA CALZADA,5,,0,,,170,175,6,1,,,2002,7,Badajoz,Menos_de_24h,3,POINT (-6.746867 38.89556),5
7187,2002060161,10.0,2002-07-17,38.434053,-6.37812,1,14,6,108,PUEBLA DE SANCHO PÉREZ,5,,0,,,60,75,6,1,,2400.0,2002,7,Badajoz,Menos_de_24h,3,POINT (-6.37812 38.434053),5
7188,2002060162,4.0,2002-07-18,38.424825,-6.094746,1,14,6,136,USAGRE,5,,0,,,65,80,4,1,,960.0,2002,7,Badajoz,Menos_de_24h,3,POINT (-6.094746 38.424825),5
7190,2002060166,3.5,2002-07-18,38.582663,-5.459309,1,14,6,87,MONTERRUBIO DE LA SERENA,5,,0,,,75,194,24,3,,,2002,7,Badajoz,Menos_de_24h,3,POINT (-5.459309 38.582663),5
7194,2002060176,6.8,2002-07-25,38.805104,-6.40428,1,14,6,83,MÉRIDA,5,,0,,,150,210,18,2,,,2002,7,Badajoz,Menos_de_24h,3,POINT (-6.40428 38.805104),5
7203,2002060208,2.0,2002-07-29,38.73008,-6.686902,1,14,6,40,CORTE DE PELEAS,5,,0,,,235,235,17,1,,,2002,7,Badajoz,Menos_de_24h,3,POINT (-6.686902 38.73008),5
7204,2002060213,5.0,2002-07-30,38.94319,-6.297773,1,14,6,83,MÉRIDA,5,,0,,,100,130,5,1,,1200.0,2002,7,Badajoz,Menos_de_24h,3,POINT (-6.297773 38.94319),5
7206,2002060215,2.5,2002-07-30,38.94319,-6.297773,1,14,6,83,MÉRIDA,5,,0,,,100,120,6,1,,600.0,2002,7,Badajoz,Menos_de_24h,3,POINT (-6.297773 38.94319),5
7207,2002060216,1.2,2002-07-30,38.936792,-6.303576,1,14,6,83,MÉRIDA,5,,0,,,40,55,7,0,,,2002,7,Badajoz,Menos_de_24h,3,POINT (-6.303576 38.936792),5
7208,2002060220,3.0,2002-08-01,38.642352,-6.676698,1,14,6,70,JEREZ DE LOS CABALLEROS,5,,0,,,40,70,33,3,,720.0,2002,8,Badajoz,Menos_de_24h,3,POINT (-6.676698 38.642352),5
7211,2002060229,58.5,2002-07-30,38.876117,-6.94514,1,14,6,15,BADAJOZ,5,,0,,,280,360,63,5,,12120.0,2002,7,Badajoz,Menos_de_24h,3,POINT (-6.94514 38.876117),5
7224,2002060254,3.0,2002-07-08,39.149788,-6.448352,1,14,6,38,CORDOBILLA DE LÁCARA,5,,0,,,32,47,23,2,,1080.0,2002,7,Badajoz,Menos_de_24h,3,POINT (-6.448352 39.149788),5
7226,2002060256,10.0,2002-07-21,38.329302,-6.396759,1,14,6,81,MEDINA DE LAS TORRES,5,,0,,,60,90,12,2,,2400.0,2002,7,Badajoz,Menos_de_24h,3,POINT (-6.396759 38.329302),5
7227,2002060257,15.0,2002-07-26,38.158011,-6.639433,1,14,6,50,FREGENAL DE LA SIERRA,5,,0,,,75,105,59,4,,2160.0,2002,7,Badajoz,Menos_de_24h,3,POINT (-6.639433 38.158011),5
7228,2002060258,2.0,2002-07-29,38.101073,-6.492115,1,14,6,124,SEGURA DE LEÓN,5,,0,,,45,75,40,2,,,2002,7,Badajoz,Menos_de_24h,3,POINT (-6.492115 38.101073),5
7229,2002060259,1.67,2002-07-30,38.897321,-6.919335,1,14,6,15,BADAJOZ,5,,0,,,185,200,26,2,,,2002,7,Badajoz,Menos_de_24h,3,POINT (-6.919335 38.897321),5
7230,2002060261,113.0,2002-08-02,38.414306,-6.438499,1,14,6,158,ZAFRA,5,,0,,,1020,1080,43,5,,24000.0,2002,8,Badajoz,Menos_de_24h,3,POINT (-6.438499 38.414306),5
7233,2002060264,1.0,2002-08-03,39.19936,-5.152298,1,14,6,63,HERRERA DEL DUQUE,5,,0,,,30,45,11,2,,,2002,8,Badajoz,Menos_de_24h,3,POINT (-5.152298 39.19936),5
7235,2002060267,1.5,2002-08-05,38.666093,-6.979259,1,14,6,143,VALVERDE DE LEGANÉS,5,,0,,,40,60,6,0,,360.0,2002,8,Badajoz,Menos_de_24h,3,POINT (-6.979259 38.666093),5
7236,2002060268,1.0,2002-08-05,39.285353,-5.09477,1,14,6,35,CASTILBLANCO,5,,0,,,40,60,15,3,,240.0,2002,8,Badajoz,Menos_de_24h,3,POINT (-5.09477 39.285353),5
7239,2002060273,2.0,2002-08-06,38.776574,-7.045647,1,14,6,15,BADAJOZ,5,,0,,,114,144,5,1,,480.0,2002,8,Badajoz,Menos_de_24h,3,POINT (-7.045647 38.776574),5
7240,2002060274,2.0,2002-08-06,39.037105,-5.229296,1,14,6,127,TALARRUBIAS,5,,0,,,90,120,16,2,,480.0,2002,8,Badajoz,Menos_de_24h,3,POINT (-5.229296 39.037105),5
7242,2002060276,4.0,2002-08-08,38.83717,-6.961307,1,14,6,15,BADAJOZ,5,,0,,,45,60,7,0,,960.0,2002,8,Badajoz,Menos_de_24h,3,POINT (-6.961307 38.83717),5
7243,2002060277,5.5,2002-08-08,38.944056,-6.313845,1,14,6,83,MÉRIDA,5,,0,,,70,85,8,2,,1320.0,2002,8,Badajoz,Menos_de_24h,3,POINT (-6.313845 38.944056),5
7246,2002060281,3.0,2002-08-09,38.511199,-6.858158,1,14,6,16,BARCARROTA,5,,0,,,75,90,7,1,,720.0,2002,8,Badajoz,Menos_de_24h,3,POINT (-6.858158 38.511199),5
7249,2002060285,1.5,2002-08-10,38.24922,-6.573297,1,14,6,50,FREGENAL DE LA SIERRA,5,,0,,,30,80,6,1,,360.0,2002,8,Badajoz,Menos_de_24h,3,POINT (-6.573297 38.24922),5
7250,2002060286,3.0,2002-08-10,38.866791,-6.949212,1,14,6,15,BADAJOZ,5,,0,,,90,120,9,3,,480.0,2002,8,Badajoz,Menos_de_24h,3,POINT (-6.949212 38.866791),5
7251,2002060287,15.0,2002-08-10,38.836883,-6.761656,1,14,6,128,TALAVERA LA REAL,5,,0,,,60,115,21,3,,1200.0,2002,8,Badajoz,Menos_de_24h,3,POINT (-6.761656 38.836883),5
7254,2002060292,1.3,2002-08-12,38.882166,-6.750783,1,14,6,128,TALAVERA LA REAL,5,,0,,,117,132,7,1,,288.0,2002,8,Badajoz,Menos_de_24h,3,POINT (-6.750783 38.882166),5
7255,2002060293,5.0,2002-08-12,38.130835,-6.496343,1,14,6,124,SEGURA DE LEÓN,5,,0,,,60,140,70,2,,,2002,8,Badajoz,Menos_de_24h,3,POINT (-6.496343 38.130835),5
7263,2002060320,1.0,2002-08-23,38.759035,-6.851883,1,14,6,15,BADAJOZ,5,,0,,,40,45,7,1,,240.0,2002,8,Badajoz,Menos_de_24h,3,POINT (-6.851883 38.759035),5
7265,2002060326,49.8,2002-08-03,38.465285,-5.669172,1,14,6,101,PERALEDA DEL ZAUCEJO,5,,0,,,225,485,44,9,,13725.0,2002,8,Badajoz,Menos_de_24h,3,POINT (-5.669172 38.465285),5
7269,2002060337,18.0,2002-08-24,39.095406,-6.610572,1,14,6,115,"ROCA DE LA SIERRA, LA",5,,0,,,60,255,23,4,,4320.0,2002,8,Badajoz,Menos_de_24h,3,POINT (-6.610572 39.095406),5
7270,2002060338,6.0,2002-08-24,38.284848,-6.321667,1,14,6,27,CALZADILLA DE LOS BARROS,5,,0,,,70,100,21,0,,2880.0,2002,8,Badajoz,Menos_de_24h,3,POINT (-6.321667 38.284848),5
7273,2002060344,2.0,2002-08-28,38.780137,-6.855797,1,14,6,15,BADAJOZ,5,,0,,,130,135,6,1,,,2002,8,Badajoz,Menos_de_24h,3,POINT (-6.855797 38.780137),5
7283,2002060358,10.0,2002-08-13,38.812653,-6.186792,1,14,6,162,"ZARZA, LA",5,,0,,,120,150,33,1,,2400.0,2002,8,Badajoz,Menos_de_24h,3,POINT (-6.186792 38.812653),5
7285,2002060364,5.0,2002-09-03,38.654191,-6.604786,1,14,6,121,SANTA MARTA,5,,0,,,135,135,6,0,,960.0,2002,9,Badajoz,Menos_de_24h,3,POINT (-6.604786 38.654191),5
7286,2002060367,1.5,2002-09-07,38.959204,-5.973063,1,14,6,80,MEDELLÍN,5,,0,,,40,60,9,1,,10949.0,2002,9,Badajoz,Menos_de_24h,3,POINT (-5.973063 38.959204),5
7289,2002060370,30.0,2002-08-21,38.614414,-6.493131,1,14,6,54,FUENTE DEL MAESTRE,5,,0,,,140,210,11,2,,,2002,8,Badajoz,Menos_de_24h,3,POINT (-6.493131 38.614414),5
7301,2002060391,4.0,2002-09-12,38.832404,-5.839761,1,14,6,15,BADAJOZ,5,,0,,,50,50,4,0,,960.0,2002,9,Badajoz,Menos_de_24h,3,POINT (-5.839761 38.832404),5
7305,2002060396,12.0,2002-09-14,38.707704,-5.828071,1,14,6,146,VALLE DE LA SERENA,5,,0,,,200,260,23,3,,1440.0,2002,9,Badajoz,Menos_de_24h,3,POINT (-5.828071 38.707704),5
7306,2002060399,1.0,2002-09-11,38.930781,-6.876091,1,14,6,15,BADAJOZ,5,,0,,,50,80,4,1,,2051.0,2002,9,Badajoz,Menos_de_24h,3,POINT (-6.876091 38.930781),5
7308,2002060402,1.0,2002-09-13,38.753861,-5.760226,1,14,6,109,QUINTANA DE LA SERENA,5,,0,,,50,90,3,1,,,2002,9,Badajoz,Menos_de_24h,3,POINT (-5.760226 38.753861),5
7313,2002060412,2.4,2002-07-30,38.52598,-6.503246,1,14,6,49,FERIA,5,,0,,,70,75,11,4,,,2002,7,Badajoz,Menos_de_24h,3,POINT (-6.503246 38.52598),5
7315,2002060500,3.0,2002-05-20,38.676803,-6.979039,1,14,6,143,VALVERDE DE LEGANÉS,5,,0,,,0,55,18,0,,,2002,5,Badajoz,Menos_de_24h,2,POINT (-6.979039 38.676803),5
7316,2002060501,2.0,2002-09-04,38.674908,-6.985149,1,14,6,143,VALVERDE DE LEGANÉS,5,,0,,,50,60,18,0,,,2002,9,Badajoz,Menos_de_24h,3,POINT (-6.985149 38.674908),5
7318,2002060505,2.0,2002-07-26,38.566687,-6.462175,1,14,6,54,FUENTE DEL MAESTRE,5,,0,,,0,60,7,1,,,2002,7,Badajoz,Menos_de_24h,3,POINT (-6.462175 38.566687),5
7319,2002060506,2.0,2002-10-22,38.473143,-6.07055,1,14,6,73,LLERA,5,,0,,,0,45,1,0,3000.0,0.0,2002,10,Badajoz,Menos_de_24h,4,POINT (-6.07055 38.473143),5
7320,2002060509,2.0,2002-08-09,38.489718,-6.371322,1,14,6,122,"SANTOS DE MAIMONA, LOS",5,,0,,,0,90,8,1,,,2002,8,Badajoz,Menos_de_24h,3,POINT (-6.371322 38.489718),5
7322,2002060513,1.02,2002-07-30,38.922968,-6.067443,1,14,6,138,VALDETORRES,5,,0,,,120,130,10,1,,,2002,7,Badajoz,Menos_de_24h,3,POINT (-6.067443 38.922968),5
7324,2002060516,10.0,2002-09-14,38.819724,-6.254874,1,14,6,162,"ZARZA, LA",5,,0,,,90,135,15,2,,,2002,9,Badajoz,Menos_de_24h,3,POINT (-6.254874 38.819724),5
7331,2002060531,2.0,2002-07-08,38.872332,-6.098568,1,14,6,60,GUAREÑA,5,,0,,,20,30,3,0,,,2002,7,Badajoz,Menos_de_24h,3,POINT (-6.098568 38.872332),5
7336,2002060540,1.0,2002-07-26,38.651097,-5.488133,1,14,6,87,MONTERRUBIO DE LA SERENA,5,,0,,,35,50,19,2,,,2002,7,Badajoz,Menos_de_24h,3,POINT (-5.488133 38.651097),5
7339,2002060545,2.0,2002-08-04,38.496717,-6.451495,1,14,6,54,FUENTE DEL MAESTRE,5,,0,,,25,30,6,1,,,2002,8,Badajoz,Menos_de_24h,3,POINT (-6.451495 38.496717),5
7340,2002060546,1.0,2002-08-06,38.713185,-6.500469,1,14,6,126,SOLANA DE LOS BARROS,5,,0,,,30,90,6,1,,,2002,8,Badajoz,Menos_de_24h,3,POINT (-6.500469 38.713185),5
7341,2002060547,2.0,2002-08-08,38.835758,-7.028649,1,14,6,15,BADAJOZ,5,,0,,,0,200,12,0,,,2002,8,Badajoz,Menos_de_24h,3,POINT (-7.028649 38.835758),5
7343,2002060549,1.3,2002-08-13,38.994028,-6.922405,1,14,6,15,BADAJOZ,5,,0,,,42,70,6,1,,,2002,8,Badajoz,Menos_de_24h,3,POINT (-6.922405 38.994028),5
7349,2002060557,2.0,2002-08-06,38.60069,-6.266264,1,14,6,113,RIBERA DEL FRESNO,5,,0,,,0,45,4,1,,,2002,8,Badajoz,Menos_de_24h,3,POINT (-6.266264 38.60069),5
7351,2002060559,3.0,2002-08-20,38.571912,-6.181958,1,14,6,106,PUEBLA DEL PRIOR,5,,0,,,0,60,8,1,,,2002,8,Badajoz,Menos_de_24h,3,POINT (-6.181958 38.571912),5
7354,2002060562,2.0,2002-09-10,38.578875,-6.244641,1,14,6,113,RIBERA DEL FRESNO,5,,0,,,0,30,6,0,,,2002,9,Badajoz,Menos_de_24h,3,POINT (-6.244641 38.578875),5
7355,2002060563,15.0,2002-09-14,38.71361,-6.265599,1,14,6,4,ALANGE,5,,0,,,174,209,11,2,,,2002,9,Badajoz,Menos_de_24h,3,POINT (-6.265599 38.71361),5
7356,2002060566,3.0,2002-09-24,38.605775,-6.229271,1,14,6,106,PUEBLA DEL PRIOR,5,,0,,,0,90,5,0,,,2002,9,Badajoz,Menos_de_24h,3,POINT (-6.229271 38.605775),5
7357,2002060568,2.0,2002-08-14,38.649767,-5.577443,1,14,6,11,ALMENDRALEJO,5,,0,,,0,120,7,1,,,2002,8,Badajoz,Menos_de_24h,3,POINT (-5.577443 38.649767),5
7365,2002060591,1.5,2002-07-03,38.861178,-6.648213,1,14,6,72,LOBÓN,5,,0,,,0,35,8,1,,,2002,7,Badajoz,Menos_de_24h,3,POINT (-6.648213 38.861178),5
7369,2002060597,10.0,2002-07-29,38.541241,-5.797514,1,14,6,29,CAMPILLO DE LLERENA,5,,0,,,35,105,22,4,,,2002,7,Badajoz,Menos_de_24h,3,POINT (-5.797514 38.541241),5
7375,2002060615,1.0,2002-09-06,38.527251,-6.439475,1,14,6,54,FUENTE DEL MAESTRE,5,,0,,,0,30,4,1,,,2002,9,Badajoz,Menos_de_24h,3,POINT (-6.439475 38.527251),5
7376,2002060616,3.0,2002-09-06,39.211495,-7.159861,1,14,6,37,"CODOSERA, LA",5,,0,,,32,135,27,2,,,2002,9,Badajoz,Menos_de_24h,3,POINT (-7.159861 39.211495),5
7378,2002060619,1.0,2002-09-08,38.845413,-6.991397,1,14,6,15,BADAJOZ,5,,0,,,15,45,4,1,,,2002,9,Badajoz,Menos_de_24h,3,POINT (-6.991397 38.845413),5
7381,2002060623,1.0,2002-09-09,38.661587,-5.706589,1,14,6,160,ZALAMEA DE LA SERENA,5,,0,,,30,70,16,1,,,2002,9,Badajoz,Menos_de_24h,3,POINT (-5.706589 38.661587),5
7382,2002060624,8.0,2002-09-09,38.685979,-5.800145,1,14,6,146,VALLE DE LA SERENA,5,,0,,,70,70,18,2,,,2002,9,Badajoz,Menos_de_24h,3,POINT (-5.800145 38.685979),5
7383,2002060627,2.0,2002-09-12,38.788765,-6.344379,1,14,6,133,TORREMEJÍA,5,,0,,,55,70,3,1,,,2002,9,Badajoz,Menos_de_24h,3,POINT (-6.344379 38.788765),5
7384,2002060629,2.0,2002-09-12,38.62674,-6.261013,1,14,6,113,RIBERA DEL FRESNO,5,,0,,,45,55,3,1,,,2002,9,Badajoz,Menos_de_24h,3,POINT (-6.261013 38.62674),5
7385,2002060631,2.0,2002-09-14,38.823941,-7.020958,1,14,6,15,BADAJOZ,5,,0,,,0,60,13,0,,,2002,9,Badajoz,Menos_de_24h,3,POINT (-7.020958 38.823941),5
7388,2002060636,14.0,2002-09-11,38.755032,-6.316715,1,14,6,4,ALANGE,5,,0,,,100,115,8,2,,,2002,9,Badajoz,Menos_de_24h,3,POINT (-6.316715 38.755032),5
7389,2002060638,5.0,2002-09-09,38.801555,-6.590555,1,14,6,15,BADAJOZ,5,,0,,,0,115,7,1,,,2002,9,Badajoz,Menos_de_24h,3,POINT (-6.590555 38.801555),5
7393,2002060648,1.0,2002-09-27,38.77377,-6.900152,1,14,6,15,BADAJOZ,5,,0,,,60,105,8,1,,,2002,9,Badajoz,Menos_de_24h,3,POINT (-6.900152 38.77377),5
7398,2002060664,3.0,2002-06-14,38.828756,-6.114978,1,14,6,41,CRISTINA,5,,0,,,75,130,26,5,,,2002,6,Badajoz,Menos_de_24h,2,POINT (-6.114978 38.828756),5
7399,2002060671,1.0,2002-07-31,38.949031,-6.295197,1,14,6,83,MÉRIDA,5,,0,,,20,30,5,0,,,2002,7,Badajoz,Menos_de_24h,3,POINT (-6.295197 38.949031),5
7400,2002060677,1.0,2002-08-14,38.876209,-5.610639,1,14,6,28,CAMPANARIO,5,,0,,,21,31,6,1,,,2002,8,Badajoz,Menos_de_24h,3,POINT (-5.610639 38.876209),5
7402,2002060684,2.0,2002-09-11,39.063217,-5.692228,1,14,6,44,DON BENITO,5,,0,,,0,40,8,1,,,2002,9,Badajoz,Menos_de_24h,3,POINT (-5.692228 39.063217),5
14920,2003060014,6.5,2003-06-02,39.318859,-7.146274,1,14,6,123,SAN VICENTE DE ALCÁNTARA,5,,0,,,65,175,28,4,,,2003,6,Badajoz,Menos_de_24h,2,POINT (-7.146274 39.318859),5
14923,2003060026,7.0,2003-06-10,38.835014,-6.931946,1,14,6,15,BADAJOZ,5,,0,,,180,210,16,3,,,2003,6,Badajoz,Menos_de_24h,2,POINT (-6.931946 38.835014),5
14926,2003060032,2.0,2003-06-08,39.132867,-6.836494,1,14,6,155,VILLAR DEL REY,5,,0,,,35,80,13,0,,,2003,6,Badajoz,Menos_de_24h,2,POINT (-6.836494 39.132867),5
14928,2003060034,15.0,2003-06-08,38.750785,-6.089336,1,14,6,94,OLIVA DE MÉRIDA,5,,0,,,275,385,26,5,,,2003,6,Badajoz,Menos_de_24h,2,POINT (-6.089336 38.750785),5
14935,2003060047,1.1,2003-06-12,39.002062,-5.756239,1,14,6,153,VILLANUEVA DE LA SERENA,5,,0,,,30,50,6,1,,,2003,6,Badajoz,Menos_de_24h,2,POINT (-5.756239 39.002062),5
14938,2003060057,2.0,2003-05-22,38.710446,-6.995146,1,14,6,143,VALVERDE DE LEGANÉS,5,,0,,,75,75,9,2,,,2003,5,Badajoz,Menos_de_24h,2,POINT (-6.995146 38.710446),5
14940,2003060063,2.0,2003-05-23,38.724332,-5.740515,1,14,6,109,QUINTANA DE LA SERENA,5,,0,,,135,135,8,2,,,2003,5,Badajoz,Menos_de_24h,2,POINT (-5.740515 38.724332),5
14942,2003060066,1.7,2003-06-12,38.964515,-6.36154,1,14,6,83,MÉRIDA,5,,0,,,60,70,8,0,,,2003,6,Badajoz,Menos_de_24h,2,POINT (-6.36154 38.964515),5
14943,2003060069,9.0,2003-05-26,38.900398,-6.36643,1,14,6,83,MÉRIDA,5,,0,,,210,240,14,3,,,2003,5,Badajoz,Menos_de_24h,2,POINT (-6.36643 38.900398),5
14953,2003060090,20.0,2003-06-18,39.034524,-5.059026,1,14,6,56,GARBAYUELA,5,,0,,,90,105,69,1,,,2003,6,Badajoz,Menos_de_24h,2,POINT (-5.059026 39.034524),5
14958,2003060098,1.07,2003-06-20,38.894116,-6.336192,1,14,6,83,MÉRIDA,5,,0,,,35,54,14,2,,,2003,6,Badajoz,Menos_de_24h,2,POINT (-6.336192 38.894116),5
14963,2003060107,1.0,2003-06-27,39.345116,-5.051207,1,14,6,35,CASTILBLANCO,5,,0,,,65,110,28,4,,,2003,6,Badajoz,Menos_de_24h,2,POINT (-5.051207 39.345116),5
14964,2003060108,6.0,2003-06-28,38.505144,-6.581113,1,14,6,99,"PARRA, LA",5,,0,,1.0,860,870,11,1,,,2003,6,Badajoz,Menos_de_24h,2,POINT (-6.581113 38.505144),5
14972,2003060129,1.0,2003-06-06,38.603277,-6.764216,1,14,6,92,NOGALES,5,,0,,,70,120,5,1,,,2003,6,Badajoz,Menos_de_24h,2,POINT (-6.764216 38.603277),5
14973,2003060130,1.0,2003-06-06,38.620331,-6.505248,1,14,6,152,VILLALBA DE LOS BARROS,5,,0,,,55,69,5,1,,,2003,6,Badajoz,Menos_de_24h,2,POINT (-6.505248 38.620331),5
14979,2003060141,1.2,2003-07-11,38.986089,-6.897724,1,14,6,15,BADAJOZ,5,,0,,,57,82,7,1,,,2003,7,Badajoz,Menos_de_24h,3,POINT (-6.897724 38.986089),5
14983,2003060150,1.25,2003-07-13,39.203735,-7.129166,1,14,6,6,ALBURQUERQUE,5,,0,,,60,100,13,0,,,2003,7,Badajoz,Menos_de_24h,3,POINT (-7.129166 39.203735),5
14988,2003060160,4.0,2003-07-15,38.211145,-6.143692,1,14,6,86,MONTEMOLÍN,5,,0,,,42,72,38,4,,,2003,7,Badajoz,Menos_de_24h,3,POINT (-6.143692 38.211145),5
14992,2003060168,1.5,2003-06-26,38.516013,-6.852407,1,14,6,16,BARCARROTA,5,,0,,,25,30,7,1,,,2003,6,Badajoz,Menos_de_24h,2,POINT (-6.852407 38.516013),5
14993,2003060169,5.8,2003-06-26,38.640699,-7.148449,1,14,6,95,OLIVENZA,5,,0,,,180,195,34,3,,,2003,6,Badajoz,Menos_de_24h,2,POINT (-7.148449 38.640699),5
14996,2003060178,1.0,2003-07-02,38.665374,-6.109164,1,14,6,104,PUEBLA DE LA REINA,5,,0,,,21,31,8,0,,,2003,7,Badajoz,Menos_de_24h,3,POINT (-6.109164 38.665374),5
15001,2003060186,204.0,2003-07-04,39.022739,-6.318317,1,14,6,83,MÉRIDA,5,,0,,,165,190,48,5,,,2003,7,Badajoz,Menos_de_24h,3,POINT (-6.318317 39.022739),5
15002,2003060189,4.0,2003-07-05,39.060868,-5.646898,1,14,6,44,DON BENITO,5,,0,,,0,125,10,1,,,2003,7,Badajoz,Menos_de_24h,3,POINT (-5.646898 39.060868),5
15007,2003060197,2.0,2003-07-11,38.697908,-6.665783,1,14,6,40,CORTE DE PELEAS,5,,0,,,195,240,8,2,,,2003,7,Badajoz,Menos_de_24h,3,POINT (-6.665783 38.697908),5
15013,2003060205,1.0,2003-07-17,38.666163,-6.536169,1,14,6,126,SOLANA DE LOS BARROS,5,,0,,,150,180,5,1,,,2003,7,Badajoz,Menos_de_24h,3,POINT (-6.536169 38.666163),5
15015,2003060207,18.0,2003-07-19,38.504862,-7.122588,1,14,6,7,ALCONCHEL,5,,0,,,60,135,68,3,,,2003,7,Badajoz,Menos_de_24h,3,POINT (-7.122588 38.504862),5
15047,2003060259,1.5,2003-08-02,38.850081,-6.700371,1,14,6,128,TALAVERA LA REAL,5,,0,,,70,70,5,1,,,2003,8,Badajoz,Menos_de_24h,3,POINT (-6.700371 38.850081),5
15048,2003060262,1.9,2003-08-05,39.221191,-4.809071,1,14,6,157,VILLARTA DE LOS MONTES,5,,0,,,65,80,18,3,,,2003,8,Badajoz,Menos_de_24h,3,POINT (-4.809071 39.221191),5
15050,2003060266,1.5,2003-08-06,38.761234,-6.647057,1,14,6,40,CORTE DE PELEAS,5,,0,,,80,80,8,1,,,2003,8,Badajoz,Menos_de_24h,3,POINT (-6.647057 38.761234),5
15063,2003060292,1.0,2003-07-28,38.871387,-6.386887,1,14,6,25,CALAMONTE,5,,0,,,40,40,7,0,,,2003,7,Badajoz,Menos_de_24h,3,POINT (-6.386887 38.871387),5
15064,2003060293,57.4,2003-07-30,38.105976,-6.503191,1,14,6,124,SEGURA DE LEÓN,5,,0,,,97,255,81,6,,,2003,7,Badajoz,Menos_de_24h,3,POINT (-6.503191 38.105976),5
15071,2003060309,1.8,2003-07-20,38.72436,-6.315011,1,14,6,4,ALANGE,5,,0,,,60,60,8,2,,,2003,7,Badajoz,Menos_de_24h,3,POINT (-6.315011 38.72436),5
15073,2003060312,3.0,2003-07-29,38.502321,-6.787317,1,14,6,116,SALVALEÓN,5,,0,,,60,120,21,1,,,2003,7,Badajoz,Menos_de_24h,3,POINT (-6.787317 38.502321),5
15075,2003060314,12.0,2003-08-04,38.872306,-6.718142,1,14,6,15,BADAJOZ,5,,0,,,240,290,28,7,,7831.0,2003,8,Badajoz,Menos_de_24h,3,POINT (-6.718142 38.872306),5
15078,2003060317,2.0,2003-07-02,38.895544,-7.00645,1,14,6,15,BADAJOZ,5,,0,,,220,220,11,1,,,2003,7,Badajoz,Menos_de_24h,3,POINT (-7.00645 38.895544),5
15084,2003060330,5.0,2003-08-13,38.414911,-6.580531,1,14,6,22,BURGUILLOS DEL CERRO,5,,0,,,85,220,18,2,,,2003,8,Badajoz,Menos_de_24h,3,POINT (-6.580531 38.414911),5
15085,2003060331,1.5,2003-08-15,38.700269,-6.543587,1,14,6,126,SOLANA DE LOS BARROS,5,,0,,,60,90,10,1,,,2003,8,Badajoz,Menos_de_24h,3,POINT (-6.543587 38.700269),5
15088,2003060337,2.5,2003-08-16,39.242371,-7.200639,1,14,6,37,"CODOSERA, LA",5,,0,,,95,215,20,1,,,2003,8,Badajoz,Menos_de_24h,3,POINT (-7.200639 39.242371),5
15089,2003060341,5.0,2003-08-21,39.358473,-5.023152,1,14,6,35,CASTILBLANCO,5,,0,,,105,120,49,9,,,2003,8,Badajoz,Menos_de_24h,3,POINT (-5.023152 39.358473),5
15091,2003060343,1.5,2003-08-23,38.357402,-6.980445,1,14,6,159,ZAHÍNOS,5,,0,,,50,125,46,4,,,2003,8,Badajoz,Menos_de_24h,3,POINT (-6.980445 38.357402),5
15092,2003060344,1.0,2003-08-29,38.694705,-7.106516,1,14,6,95,OLIVENZA,5,,0,,,11,30,4,1,,,2003,8,Badajoz,Menos_de_24h,3,POINT (-7.106516 38.694705),5
15100,2003060359,1.5,2003-08-29,38.928794,-6.533737,1,14,6,88,MONTIJO,5,,0,,,60,80,6,1,,,2003,8,Badajoz,Menos_de_24h,3,POINT (-6.533737 38.928794),5
15101,2003060361,150.0,2003-08-09,38.502937,-6.492507,1,14,6,54,FUENTE DEL MAESTRE,5,,0,,,395,410,29,6,,,2003,8,Badajoz,Menos_de_24h,3,POINT (-6.492507 38.502937),5
15105,2003060367,3.5,2003-08-20,39.013371,-5.732024,1,14,6,153,VILLANUEVA DE LA SERENA,5,,0,,,55,95,1,0,,,2003,8,Badajoz,Menos_de_24h,3,POINT (-5.732024 39.013371),5
15111,2003060387,13.0,2003-07-18,38.753279,-6.938519,1,14,6,15,BADAJOZ,5,,0,,,150,165,14,2,,,2003,7,Badajoz,Menos_de_24h,3,POINT (-6.938519 38.753279),5
15112,2003060388,2.0,2003-07-20,39.025204,-6.903831,1,14,6,15,BADAJOZ,5,,0,,,105,110,20,1,,,2003,7,Badajoz,Menos_de_24h,3,POINT (-6.903831 39.025204),5
15113,2003060389,1.0,2003-07-23,38.896293,-6.964263,1,14,6,15,BADAJOZ,5,,0,,,15,30,4,1,,,2003,7,Badajoz,Menos_de_24h,3,POINT (-6.964263 38.896293),5
15114,2003060391,4.0,2003-08-22,39.037201,-6.707334,1,14,6,15,BADAJOZ,5,,0,,,80,90,16,3,,,2003,8,Badajoz,Menos_de_24h,3,POINT (-6.707334 39.037201),5
15120,2003060399,3.0,2003-07-20,38.868936,-6.700674,1,14,6,15,BADAJOZ,5,,0,,,80,90,20,2,,,2003,7,Badajoz,Menos_de_24h,3,POINT (-6.700674 38.868936),5
15121,2003060401,10.0,2003-09-13,38.825779,-6.125752,1,14,6,94,OLIVA DE MÉRIDA,5,,0,,,80,130,10,2,,,2003,9,Badajoz,Menos_de_24h,3,POINT (-6.125752 38.825779),5
15122,2003060403,2.0,2003-09-14,38.927881,-5.878932,1,14,6,44,DON BENITO,5,,0,,,0,70,11,1,,,2003,9,Badajoz,Menos_de_24h,3,POINT (-5.878932 38.927881),5
15124,2003060406,2.0,2003-08-14,38.433363,-6.459212,1,14,6,158,ZAFRA,5,,0,,,135,195,9,1,,,2003,8,Badajoz,Menos_de_24h,3,POINT (-6.459212 38.433363),5
15135,2003060429,2.5,2003-09-19,39.028505,-6.020799,1,14,6,120,SANTA AMALIA,5,,0,,,105,135,34,3,,,2003,9,Badajoz,Menos_de_24h,3,POINT (-6.020799 39.028505),5
15139,2003060434,13.0,2003-09-27,38.784027,-6.130745,1,14,6,94,OLIVA DE MÉRIDA,5,,0,,,240,520,33,6,,,2003,9,Badajoz,Menos_de_24h,3,POINT (-6.130745 38.784027),5
15141,2003060437,1.0,2003-09-29,38.653785,-6.095613,1,14,6,104,PUEBLA DE LA REINA,5,,0,,,60,85,5,1,,,2003,9,Badajoz,Menos_de_24h,3,POINT (-6.095613 38.653785),5
15146,2003060445,1.0,2003-09-03,38.619377,-6.814159,1,14,6,10,ALMENDRAL,5,,0,,,40,65,4,1,,,2003,9,Badajoz,Menos_de_24h,3,POINT (-6.814159 38.619377),5
15151,2003060452,3.0,2003-10-04,38.885784,-6.034881,1,14,6,60,GUAREÑA,5,,0,,,0,100,3,0,,,2003,10,Badajoz,Menos_de_24h,4,POINT (-6.034881 38.885784),5
15153,2003060454,2.0,2003-08-03,38.873055,-6.686606,1,14,6,15,BADAJOZ,5,,0,,,120,195,5,2,,2772.0,2003,8,Badajoz,Menos_de_24h,3,POINT (-6.686606 38.873055),5
15157,2003060461,650.0,2003-08-02,38.502057,-6.382786,1,14,6,54,FUENTE DEL MAESTRE,5,,0,,,705,750,20,5,,,2003,8,Badajoz,Menos_de_24h,3,POINT (-6.382786 38.502057),5
15160,2003060469,4.0,2003-09-26,38.90532,-6.164376,1,14,6,60,GUAREÑA,5,,0,,,0,150,10,2,,,2003,9,Badajoz,Menos_de_24h,3,POINT (-6.164376 38.90532),5
15161,2003060470,1.0,2003-09-27,38.875154,-6.135864,1,14,6,60,GUAREÑA,5,,0,,,0,265,5,1,,,2003,9,Badajoz,Menos_de_24h,3,POINT (-6.135864 38.875154),5
15163,2003060474,15.0,2003-10-03,38.961365,-6.361657,1,14,6,83,MÉRIDA,5,,0,,,70,85,4,1,,,2003,10,Badajoz,Menos_de_24h,4,POINT (-6.361657 38.961365),5
15179,2003060499,10.0,2003-10-09,38.287108,-6.100798,1,14,6,150,VILLAGARCÍA DE LA TORRE,5,,0,,,90,105,8,1,,7731.0,2003,10,Badajoz,Menos_de_24h,4,POINT (-6.100798 38.287108),5
15184,2003060509,1.0,2003-05-31,39.064224,-5.650652,1,14,6,44,DON BENITO,5,,0,,,0,95,8,1,,,2003,5,Badajoz,Menos_de_24h,2,POINT (-5.650652 39.064224),5
15185,2003060512,3.0,2003-06-22,38.300675,-5.595185,1,14,6,59,GRANJA DE TORREHERMOSA,5,,0,,,60,75,10,0,,3669.0,2003,6,Badajoz,Menos_de_24h,2,POINT (-5.595185 38.300675),5
15190,2003060519,2.0,2003-08-01,38.691994,-6.134658,1,14,6,98,PALOMAS,5,,0,,,0,25,10,1,,,2003,8,Badajoz,Menos_de_24h,3,POINT (-6.134658 38.691994),5
15193,2003060525,1.0,2003-09-27,38.920082,-6.956628,1,14,6,15,BADAJOZ,5,,0,,,45,50,6,1,,,2003,9,Badajoz,Menos_de_24h,3,POINT (-6.956628 38.920082),5
15434,2003100199,1.0,2003-07-13,39.26949,-5.347683,1,14,10,126,MONTÁNCHEZ,5,,0,,,70,80,9,2,,,2003,7,Cáceres,Menos_de_24h,3,POINT (-5.347683 39.26949),5
21542,2004060001,50.0,2004-06-11,38.975193,-6.766691,1,14,6,15,BADAJOZ,5,,0,,,135,195,21,4,,,2004,6,Badajoz,Menos_de_24h,2,POINT (-6.766691 38.975193),5
21546,2004060011,2.0,2004-06-03,39.003428,-6.928123,1,14,6,15,BADAJOZ,5,,0,,,150,210,8,1,,,2004,6,Badajoz,Menos_de_24h,2,POINT (-6.928123 39.003428),5
21548,2004060015,1.0,2004-06-04,38.838425,-6.973356,1,14,6,15,BADAJOZ,5,,0,,,30,110,7,2,,,2004,6,Badajoz,Menos_de_24h,2,POINT (-6.973356 38.838425),5
21554,2004060033,3.0,2004-06-12,38.732024,-6.673208,1,14,6,40,CORTE DE PELEAS,5,,0,,,50,55,8,1,,4661.0,2004,6,Badajoz,Menos_de_24h,2,POINT (-6.673208 38.732024),5
21556,2004060038,1.0,2004-06-13,38.985238,-5.797638,1,14,6,153,VILLANUEVA DE LA SERENA,5,,0,,,45,45,5,1,,,2004,6,Badajoz,Menos_de_24h,2,POINT (-5.797638 38.985238),5
21559,2004060043,1.3,2004-06-15,38.390789,-6.433136,1,14,6,158,ZAFRA,5,,0,,,30,40,8,1,,,2004,6,Badajoz,Menos_de_24h,2,POINT (-6.433136 38.390789),5
21563,2004060049,1.0,2004-06-16,38.813462,-6.119476,1,14,6,94,OLIVA DE MÉRIDA,5,,0,,,20,25,4,1,,,2004,6,Badajoz,Menos_de_24h,2,POINT (-6.119476 38.813462),5
21565,2004060051,3.0,2004-06-16,38.945167,-6.427442,1,14,6,46,ESPARRAGALEJO,5,,0,,,95,115,9,2,,,2004,6,Badajoz,Menos_de_24h,2,POINT (-6.427442 38.945167),5
21567,2004060054,1.0,2004-06-17,39.057799,-6.084816,1,14,6,44,DON BENITO,5,,0,,,75,89,12,1,,,2004,6,Badajoz,Menos_de_24h,2,POINT (-6.084816 39.057799),5
21576,2004060068,15.0,2004-06-19,38.914605,-6.848906,1,14,6,15,BADAJOZ,5,,0,,,75,85,6,2,,4680.0,2004,6,Badajoz,Menos_de_24h,2,POINT (-6.848906 38.914605),5
21579,2004060072,2.0,2004-06-19,39.012437,-5.860362,1,14,6,44,DON BENITO,5,,0,,,75,75,4,1,,,2004,6,Badajoz,Menos_de_24h,2,POINT (-5.860362 39.012437),5
21583,2004060079,1.57,2004-06-20,39.36572,-7.143468,1,14,6,123,SAN VICENTE DE ALCÁNTARA,5,,0,,,35,80,26,2,,,2004,6,Badajoz,Menos_de_24h,2,POINT (-7.143468 39.36572),5
21586,2004060086,1.0,2004-06-23,39.00867,-5.999475,1,14,6,80,MEDELLÍN,5,,0,,,85,85,6,1,,,2004,6,Badajoz,Menos_de_24h,2,POINT (-5.999475 39.00867),5
21589,2004060093,1.0,2004-06-25,38.97673,-6.359471,1,14,6,83,MÉRIDA,5,,0,,,30,40,8,2,,,2004,6,Badajoz,Menos_de_24h,2,POINT (-6.359471 38.97673),5
21593,2004060104,17.0,2004-06-26,38.749369,-6.710591,1,14,6,15,BADAJOZ,5,,0,,,105,120,19,4,,,2004,6,Badajoz,Menos_de_24h,2,POINT (-6.710591 38.749369),5
21594,2004060106,6.0,2004-06-27,38.884661,-6.8867,1,14,6,15,BADAJOZ,5,,0,,,150,210,10,1,,19.0,2004,6,Badajoz,Menos_de_24h,2,POINT (-6.8867 38.884661),5
21597,2004060110,6.0,2004-06-27,38.952091,-6.145747,1,14,6,60,GUAREÑA,5,,0,,,390,390,6,1,,,2004,6,Badajoz,Menos_de_24h,2,POINT (-6.145747 38.952091),5
21598,2004060112,2.0,2004-06-28,38.274589,-5.815864,1,14,6,19,BERLANGA,5,,0,,,40,45,18,2,,,2004,6,Badajoz,Menos_de_24h,2,POINT (-5.815864 38.274589),5
21600,2004060114,1.2,2004-06-29,39.32928,-5.080953,1,14,6,35,CASTILBLANCO,5,,0,,,40,80,22,2,,,2004,6,Badajoz,Menos_de_24h,2,POINT (-5.080953 39.32928),5
21601,2004060116,1.0,2004-06-29,39.060538,-6.316979,1,14,6,9,ALJUCÉN,5,,0,,,45,75,9,1,,,2004,6,Badajoz,Menos_de_24h,2,POINT (-6.316979 39.060538),5
21603,2004060120,2.0,2004-06-30,38.828434,-6.840238,1,14,6,15,BADAJOZ,5,,0,,,30,45,7,1,,,2004,6,Badajoz,Menos_de_24h,2,POINT (-6.840238 38.828434),5
21606,2004060125,1.5,2004-07-01,39.112387,-7.014578,1,14,6,6,ALBURQUERQUE,5,,0,,,135,195,27,8,,,2004,7,Badajoz,Menos_de_24h,3,POINT (-7.014578 39.112387),5
21610,2004060131,1.2,2004-07-02,38.726905,-6.332514,1,14,6,11,ALMENDRALEJO,5,,0,,,55,60,4,2,,,2004,7,Badajoz,Menos_de_24h,3,POINT (-6.332514 38.726905),5
21612,2004060135,1.0,2004-07-02,39.075438,-6.911072,1,14,6,6,ALBURQUERQUE,5,,0,,,17,52,8,0,,,2004,7,Badajoz,Menos_de_24h,3,POINT (-6.911072 39.075438),5
21623,2004060153,12.0,2004-07-08,38.930491,-5.127949,1,14,6,125,SIRUELA,5,,0,,,45,60,96,4,,69706.0,2004,7,Badajoz,Menos_de_24h,3,POINT (-5.127949 38.930491),5
21626,2004060158,4.0,2004-07-08,38.964683,-5.968723,1,14,6,80,MEDELLÍN,5,,0,,,75,135,15,3,,,2004,7,Badajoz,Menos_de_24h,3,POINT (-5.968723 38.964683),5
21634,2004060171,20.0,2004-07-11,38.855014,-7.007478,1,14,6,15,BADAJOZ,5,,0,,,90,90,10,2,,,2004,7,Badajoz,Menos_de_24h,3,POINT (-7.007478 38.855014),5
21643,2004060188,4.0,2004-07-17,38.865076,-6.793399,1,14,6,128,TALAVERA LA REAL,5,,0,,,115,115,14,1,,,2004,7,Badajoz,Menos_de_24h,3,POINT (-6.793399 38.865076),5
21645,2004060190,5.0,2004-07-18,38.516044,-6.957841,1,14,6,129,TÁLIGA,5,,0,,,150,195,32,3,,,2004,7,Badajoz,Menos_de_24h,3,POINT (-6.957841 38.516044),5
21646,2004060191,1.5,2004-07-18,38.757706,-6.311552,1,14,6,4,ALANGE,5,,0,,,30,30,8,2,,,2004,7,Badajoz,Menos_de_24h,3,POINT (-6.311552 38.757706),5
21647,2004060192,2.0,2004-07-18,38.939546,-6.832866,1,14,6,15,BADAJOZ,5,,0,,,25,30,3,0,,,2004,7,Badajoz,Menos_de_24h,3,POINT (-6.832866 38.939546),5
21648,2004060193,3.0,2004-07-18,39.018527,-5.788222,1,14,6,153,VILLANUEVA DE LA SERENA,5,,0,,,120,145,10,2,,,2004,7,Badajoz,Menos_de_24h,3,POINT (-5.788222 39.018527),5
21650,2004060195,4.0,2004-07-19,38.345008,-6.882194,1,14,6,70,JEREZ DE LOS CABALLEROS,5,,0,,,105,195,28,3,,,2004,7,Badajoz,Menos_de_24h,3,POINT (-6.882194 38.345008),5
21652,2004060197,2.5,2004-07-19,38.320675,-6.437853,1,14,6,81,MEDINA DE LAS TORRES,5,,0,,,61,71,18,2,,2321.0,2004,7,Badajoz,Menos_de_24h,3,POINT (-6.437853 38.320675),5
21655,2004060207,1.25,2004-07-21,38.51916,-6.537716,1,14,6,49,FERIA,5,,0,,,60,75,4,1,,,2004,7,Badajoz,Menos_de_24h,3,POINT (-6.537716 38.51916),5
21661,2004060216,1.5,2004-07-24,39.05938,-5.798496,1,14,6,111,RENA,5,,0,,,90,90,4,1,,,2004,7,Badajoz,Menos_de_24h,3,POINT (-5.798496 39.05938),5
21663,2004060219,16.0,2004-07-25,38.418273,-6.469704,1,14,6,8,ALCONERA,5,,0,,,115,135,20,3,,54458.0,2004,7,Badajoz,Menos_de_24h,3,POINT (-6.469704 38.418273),5
21678,2004060240,1.0,2004-07-30,38.732282,-6.676627,1,14,6,40,CORTE DE PELEAS,5,,0,,,140,160,9,0,,,2004,7,Badajoz,Menos_de_24h,3,POINT (-6.676627 38.732282),5
21679,2004060241,18.5,2004-07-30,38.705313,-6.474596,1,14,6,11,ALMENDRALEJO,5,,0,,,105,180,26,3,,,2004,7,Badajoz,Menos_de_24h,3,POINT (-6.474596 38.705313),5
21681,2004060244,18.0,2004-07-30,38.46133,-7.276776,1,14,6,154,VILLANUEVA DEL FRESNO,5,,0,,,105,280,60,3,,,2004,7,Badajoz,Menos_de_24h,3,POINT (-7.276776 38.46133),5
21706,2004060283,5.0,2004-07-05,38.667663,-6.461394,1,14,6,11,ALMENDRALEJO,5,,0,,,150,158,4,1,,,2004,7,Badajoz,Menos_de_24h,3,POINT (-6.461394 38.667663),5
21709,2004060286,2.0,2004-07-28,38.85303,-6.56802,1,14,6,72,LOBÓN,5,,0,,,70,80,7,1,,,2004,7,Badajoz,Menos_de_24h,3,POINT (-6.56802 38.85303),5
21727,2004060316,7.0,2004-07-26,38.755185,-6.716803,1,14,6,15,BADAJOZ,5,,0,,,281,330,30,4,,,2004,7,Badajoz,Menos_de_24h,3,POINT (-6.716803 38.755185),5
21729,2004060320,140.11,2004-06-30,38.31785,-6.321562,1,14,6,27,CALZADILLA DE LOS BARROS,5,,0,,,395,505,41,5,,,2004,6,Badajoz,Menos_de_24h,2,POINT (-6.321562 38.31785),5
21731,2004060322,15.93,2004-07-24,38.776143,-5.201014,1,14,6,23,CABEZA DEL BUEY,5,,0,,,70,85,33,2,,,2004,7,Badajoz,Menos_de_24h,3,POINT (-5.201014 38.776143),5
21732,2004060323,72.51,2004-07-31,38.441707,-6.524862,1,14,6,22,BURGUILLOS DEL CERRO,5,,0,,,295,1705,45,7,,8223.0,2004,7,Badajoz,Entre_1dia_y_1semana,3,POINT (-6.524862 38.441707),5
21738,2004060333,18.5,2004-07-06,39.265337,-5.064838,1,14,6,35,CASTILBLANCO,5,,0,,,95,115,45,5,,,2004,7,Badajoz,Menos_de_24h,3,POINT (-5.064838 39.265337),5
21742,2004060341,1.0,2004-08-19,38.802304,-5.092464,1,14,6,30,CAPILLA,5,,0,,,20,20,12,1,,,2004,8,Badajoz,Menos_de_24h,3,POINT (-5.092464 38.802304),5
21743,2004060342,2.0,2004-08-28,39.001467,-5.737927,1,14,6,153,VILLANUEVA DE LA SERENA,5,,0,,,120,120,6,1,,,2004,8,Badajoz,Menos_de_24h,3,POINT (-5.737927 39.001467),5
21751,2004060365,1.0,2004-08-28,38.828175,-6.116603,1,14,6,41,CRISTINA,5,,0,,,60,60,8,1,,,2004,8,Badajoz,Menos_de_24h,3,POINT (-6.116603 38.828175),5
21753,2004060368,4.0,2004-09-13,38.983572,-5.699769,1,14,6,153,VILLANUEVA DE LA SERENA,5,,0,,,75,75,9,3,,,2004,9,Badajoz,Menos_de_24h,3,POINT (-5.699769 38.983572),5
21763,2004060381,40.0,2004-09-07,38.308681,-6.549897,1,14,6,141,VALENCIA DEL VENTOSO,5,,0,,,110,200,24,3,,,2004,9,Badajoz,Menos_de_24h,3,POINT (-6.549897 38.308681),5
21770,2004060401,3.0,2004-09-28,39.126976,-7.079734,1,14,6,6,ALBURQUERQUE,5,,0,,,75,135,24,2,,,2004,9,Badajoz,Menos_de_24h,3,POINT (-7.079734 39.126976),5
21773,2004060405,1.5,2004-09-30,38.532438,-6.08691,1,14,6,69,HORNACHOS,5,,0,,,60,75,8,2,,,2004,9,Badajoz,Menos_de_24h,3,POINT (-6.08691 38.532438),5
21775,2004060413,3.0,2004-10-02,38.872652,-5.787776,1,14,6,61,"HABA, LA",5,,0,,,120,120,6,1,,,2004,10,Badajoz,Menos_de_24h,4,POINT (-5.787776 38.872652),5
21776,2004060416,12.0,2004-10-03,38.260197,-5.876877,1,14,6,3,AHILLONES,5,,0,,,80,90,9,0,,,2004,10,Badajoz,Menos_de_24h,4,POINT (-5.876877 38.260197),5
21779,2004060421,24.0,2004-10-04,39.190163,-7.159514,1,14,6,37,"CODOSERA, LA",5,,0,,,225,405,68,9,,,2004,10,Badajoz,Menos_de_24h,4,POINT (-7.159514 39.190163),5
21781,2004060424,82.0,2004-10-04,38.252104,-5.718332,1,14,6,14,AZUAGA,5,,0,,,180,240,8,1,,1139.0,2004,10,Badajoz,Menos_de_24h,4,POINT (-5.718332 38.252104),5
21788,2004060440,5.0,2004-10-06,39.253353,-5.173254,1,14,6,137,VALDECABALLEROS,5,,0,,,55,85,29,2,,,2004,10,Badajoz,Menos_de_24h,4,POINT (-5.173254 39.253353),5
21789,2004060441,2.1,2004-10-06,39.25818,-5.179198,1,14,6,137,VALDECABALLEROS,5,,0,,,40,75,14,1,,,2004,10,Badajoz,Menos_de_24h,4,POINT (-5.179198 39.25818),5
21793,2004060446,2.0,2004-10-06,38.493568,-6.166432,1,14,6,68,HINOJOSA DEL VALLE,5,,0,,,65,75,6,1,,,2004,10,Badajoz,Menos_de_24h,4,POINT (-6.166432 38.493568),5
21797,2004060456,8.0,2004-10-08,38.766445,-5.634309,1,14,6,146,VALLE DE LA SERENA,5,,0,,,105,145,31,3,,,2004,10,Badajoz,Menos_de_24h,4,POINT (-5.634309 38.766445),5
21798,2004060457,15.0,2004-10-08,38.744631,-5.850432,1,14,6,146,VALLE DE LA SERENA,5,,0,,,180,180,28,4,,,2004,10,Badajoz,Menos_de_24h,4,POINT (-5.850432 38.744631),5
21801,2004060469,1.0,2004-10-09,38.580459,-5.63537,1,14,6,160,ZALAMEA DE LA SERENA,5,,0,,,110,165,13,2,,,2004,10,Badajoz,Menos_de_24h,4,POINT (-5.63537 38.580459),5
21803,2004060483,1.5,2004-10-12,38.913004,-5.871723,1,14,6,44,DON BENITO,5,,0,,,85,85,11,3,,,2004,10,Badajoz,Menos_de_24h,4,POINT (-5.871723 38.913004),5
21804,2004060484,4.0,2004-10-12,38.928569,-5.879525,1,14,6,44,DON BENITO,5,,0,,,50,50,6,1,,,2004,10,Badajoz,Menos_de_24h,4,POINT (-5.879525 38.928569),5
21806,2004060487,2.7,2004-10-04,38.701722,-6.148952,1,14,6,98,PALOMAS,5,,0,,,190,205,3,1,,,2004,10,Badajoz,Menos_de_24h,4,POINT (-6.148952 38.701722),5
21807,2004060488,8.0,2004-10-12,39.0085,-5.748776,1,14,6,153,VILLANUEVA DE LA SERENA,5,,0,,,85,85,7,1,,,2004,10,Badajoz,Menos_de_24h,4,POINT (-5.748776 39.0085),5
21813,2004060508,15.0,2004-10-07,39.07226,-5.88469,1,14,6,44,DON BENITO,5,,0,,,0,182,6,1,,,2004,10,Badajoz,Menos_de_24h,4,POINT (-5.88469 39.07226),5
21814,2004060509,3.0,2004-10-12,39.009507,-5.743122,1,14,6,153,VILLANUEVA DE LA SERENA,5,,0,,,340,340,6,0,,,2004,10,Badajoz,Menos_de_24h,4,POINT (-5.743122 39.009507),5
21816,2004060518,8.0,2004-08-27,38.789552,-7.129475,1,14,6,95,OLIVENZA,5,,0,,,102,121,9,2,,,2004,8,Badajoz,Menos_de_24h,3,POINT (-7.129475 38.789552),5
21828,2004060579,1.8,2004-09-23,38.706609,-6.239132,1,14,6,4,ALANGE,5,,0,,,35,45,4,1,,,2004,9,Badajoz,Menos_de_24h,3,POINT (-6.239132 38.706609),5
21837,2004060604,1.0,2004-09-26,38.942355,-5.927911,1,14,6,82,MENGABRIL,5,,0,,,0,125,1,1,,,2004,9,Badajoz,Menos_de_24h,3,POINT (-5.927911 38.942355),5
21839,2004060606,2.0,2004-09-26,38.868637,-6.592428,1,14,6,88,MONTIJO,5,,0,,,55,60,7,1,,1830.0,2004,9,Badajoz,Menos_de_24h,3,POINT (-6.592428 38.868637),5
21840,2004060607,17.84,2004-09-27,39.043789,-6.306026,1,14,6,84,MIRANDILLA,5,,0,,,100,250,21,5,,,2004,9,Badajoz,Menos_de_24h,3,POINT (-6.306026 39.043789),5
21841,2004060610,5.0,2004-09-28,38.721905,-5.789035,1,14,6,146,VALLE DE LA SERENA,5,,0,,,0,210,18,7,,,2004,9,Badajoz,Menos_de_24h,3,POINT (-5.789035 38.721905),5
21843,2004060613,6.0,2004-09-29,39.221418,-5.260136,1,14,6,102,PUEBLA DE ALCOCER,5,,0,,,125,155,29,5,,,2004,9,Badajoz,Menos_de_24h,3,POINT (-5.260136 39.221418),5
21853,2004060625,1.0,2004-10-02,39.286654,-5.043401,1,14,6,35,CASTILBLANCO,5,,0,,,55,85,40,7,,,2004,10,Badajoz,Menos_de_24h,4,POINT (-5.043401 39.286654),5
21868,2004060653,36.47,2004-10-12,38.874427,-6.877378,1,14,6,15,BADAJOZ,5,,0,,,140,150,7,1,,,2004,10,Badajoz,Menos_de_24h,4,POINT (-6.877378 38.874427),5
21877,2004060668,3.0,2004-09-19,38.817172,-6.453972,1,14,6,83,MÉRIDA,5,,0,,,0,60,8,1,,,2004,9,Badajoz,Menos_de_24h,3,POINT (-6.453972 38.817172),5
21878,2004060669,1.5,2004-09-23,38.52944,-6.727468,1,14,6,92,NOGALES,5,,0,,,0,360,8,1,,,2004,9,Badajoz,Menos_de_24h,3,POINT (-6.727468 38.52944),5
21879,2004060670,3.0,2004-10-03,38.691346,-6.165354,1,14,6,98,PALOMAS,5,,0,,,0,75,6,1,,,2004,10,Badajoz,Menos_de_24h,4,POINT (-6.165354 38.691346),5
29261,2005060007,1.0,2005-01-30,39.161276,-4.898885,1,14,6,51,FUENLABRADA DE LOS MONTES,5,,0,,,420,480,13,2,,,2005,1,Badajoz,Menos_de_24h,,POINT (-4.898885 39.161276),5
29275,2005060036,4.5,2005-03-10,38.610686,-5.748906,1,14,6,160,ZALAMEA DE LA SERENA,5,,0,,,135,375,31,3,,,2005,3,Badajoz,Menos_de_24h,1,POINT (-5.748906 38.610686),5
29276,2005060037,2.0,2005-03-10,39.150759,-5.283041,1,14,6,33,CASAS DE DON PEDRO,5,,0,,,105,195,12,2,,6461.0,2005,3,Badajoz,Menos_de_24h,1,POINT (-5.283041 39.150759),5
29277,2005060038,2.65,2005-03-10,38.49589,-6.54517,1,14,6,49,FERIA,5,,0,,,110,155,7,1,,,2005,3,Badajoz,Menos_de_24h,1,POINT (-6.54517 38.49589),5
29282,2005060048,1.0,2005-03-21,39.12722,-5.485399,1,14,6,91,NAVALVILLAR DE PELA,5,,0,,,55,80,5,0,,,2005,3,Badajoz,Menos_de_24h,1,POINT (-5.485399 39.12722),5
29288,2005060054,2.0,2005-04-09,39.034279,-5.831396,1,14,6,44,DON BENITO,5,,0,,,0,210,5,1,,,2005,4,Badajoz,Menos_de_24h,2,POINT (-5.831396 39.034279),5
29290,2005060056,1.0,2005-04-11,38.997802,-5.876305,1,14,6,44,DON BENITO,5,,0,,,0,90,7,2,,,2005,4,Badajoz,Menos_de_24h,2,POINT (-5.876305 38.997802),5
29291,2005060057,1.0,2005-04-12,38.467886,-7.231196,1,14,6,7,ALCONCHEL,5,,0,,,220,300,12,1,,,2005,4,Badajoz,Menos_de_24h,2,POINT (-7.231196 38.467886),5
29292,2005060058,1.0,2005-04-12,38.886859,-5.841956,1,14,6,44,DON BENITO,5,,0,,,0,80,5,1,,,2005,4,Badajoz,Menos_de_24h,2,POINT (-5.841956 38.886859),5
29299,2005060066,6.0,2005-04-20,38.435384,-6.705047,1,14,6,70,JEREZ DE LOS CABALLEROS,5,,0,,,0,195,8,1,,,2005,4,Badajoz,Menos_de_24h,2,POINT (-6.705047 38.435384),5
29300,2005060072,1.0,2005-04-26,39.061778,-5.655599,1,14,6,44,DON BENITO,5,,0,,,0,130,6,2,,,2005,4,Badajoz,Menos_de_24h,2,POINT (-5.655599 39.061778),5
29304,2005060077,15.0,2005-04-29,38.506207,-6.048996,1,14,6,69,HORNACHOS,5,,0,,,0,120,3,2,,,2005,4,Badajoz,Menos_de_24h,2,POINT (-6.048996 38.506207),5
29313,2005060098,3.5,2005-06-06,38.719835,-5.118764,1,14,6,161,ZARZA-CAPILLA,5,,0,,,0,220,35,6,,,2005,6,Badajoz,Menos_de_24h,2,POINT (-5.118764 38.719835),5
29317,2005060103,3.0,2005-06-10,38.957518,-6.926923,1,14,6,15,BADAJOZ,5,,0,,,110,110,11,2,,,2005,6,Badajoz,Menos_de_24h,2,POINT (-6.926923 38.957518),5
29325,2005060119,1.0,2005-06-17,39.019148,-5.808145,1,14,6,153,VILLANUEVA DE LA SERENA,5,,0,,,40,40,8,1,,,2005,6,Badajoz,Menos_de_24h,2,POINT (-5.808145 39.019148),5
29334,2005060139,3.0,2005-07-02,39.139775,-7.068013,1,14,6,6,ALBURQUERQUE,5,,0,,,35,79,15,1,,,2005,7,Badajoz,Menos_de_24h,3,POINT (-7.068013 39.139775),5
29336,2005060142,2.5,2005-07-03,38.990029,-6.898866,1,14,6,15,BADAJOZ,5,,0,,,105,225,73,6,,,2005,7,Badajoz,Menos_de_24h,3,POINT (-6.898866 38.990029),5
29343,2005060153,2.5,2005-07-06,38.352139,-6.574166,1,14,6,22,BURGUILLOS DEL CERRO,5,,0,,,135,325,9,0,,0.0,2005,7,Badajoz,Menos_de_24h,3,POINT (-6.574166 38.352139),5
29348,2005060171,15.0,2005-07-21,39.282361,-7.12609,1,14,6,123,SAN VICENTE DE ALCÁNTARA,5,,0,,,60,165,20,5,,,2005,7,Badajoz,Menos_de_24h,3,POINT (-7.12609 39.282361),5
29355,2005060187,1.2,2005-08-03,38.773438,-6.525598,1,14,6,83,MÉRIDA,5,,0,,,120,135,6,1,,,2005,8,Badajoz,Menos_de_24h,3,POINT (-6.525598 38.773438),5
29358,2005060194,9.0,2005-08-13,38.364872,-6.77496,1,14,6,148,VALLE DE SANTA ANA,5,,0,,,285,1095,53,5,,,2005,8,Badajoz,Menos_de_24h,3,POINT (-6.77496 38.364872),5
29361,2005060197,22.0,2005-08-14,38.523237,-6.642982,1,14,6,99,"PARRA, LA",5,,0,,,210,390,54,3,,,2005,8,Badajoz,Menos_de_24h,3,POINT (-6.642982 38.523237),5
29363,2005060201,1.25,2005-08-18,39.159398,-6.980343,1,14,6,6,ALBURQUERQUE,5,,0,,,45,95,18,1,,,2005,8,Badajoz,Menos_de_24h,3,POINT (-6.980343 39.159398),5
29365,2005060206,3.05,2005-08-21,38.921004,-6.458302,1,14,6,135,TRUJILLANOS,5,,0,,,30,60,6,1,,,2005,8,Badajoz,Menos_de_24h,3,POINT (-6.458302 38.921004),5
29367,2005060209,1.0,2005-08-24,38.652176,-5.51354,1,14,6,18,BENQUERENCIA DE LA SERENA,5,,0,,,80,175,23,5,,,2005,8,Badajoz,Menos_de_24h,3,POINT (-5.51354 38.652176),5
29368,2005060211,2.5,2005-08-26,38.529953,-5.65478,1,14,6,101,PERALEDA DEL ZAUCEJO,5,,0,,,110,530,35,5,,,2005,8,Badajoz,Menos_de_24h,3,POINT (-5.65478 38.529953),5
29370,2005060216,2.0,2005-09-02,38.685607,-6.632972,1,14,6,121,SANTA MARTA,5,,0,,,185,195,8,1,,,2005,9,Badajoz,Menos_de_24h,3,POINT (-6.632972 38.685607),5
29372,2005060222,1.0,2005-09-09,39.295051,-5.089087,1,14,6,35,CASTILBLANCO,5,,0,,,45,75,15,2,,,2005,9,Badajoz,Menos_de_24h,3,POINT (-5.089087 39.295051),5
29373,2005060225,1.5,2005-09-14,39.148783,-6.775016,1,14,6,6,ALBURQUERQUE,5,,0,,,20,145,16,1,,,2005,9,Badajoz,Menos_de_24h,3,POINT (-6.775016 39.148783),5
29374,2005060228,2.0,2005-03-17,39.078508,-5.578194,1,14,6,1,ACEDERA,5,,0,,,0,90,5,0,,,2005,3,Badajoz,Menos_de_24h,1,POINT (-5.578194 39.078508),5
29376,2005060233,1.2,2005-08-03,38.773438,-6.525598,1,14,6,83,MÉRIDA,5,,0,,,120,135,6,1,,,2005,8,Badajoz,Menos_de_24h,3,POINT (-6.525598 38.773438),5
29382,2005060243,1.0,2005-09-06,38.490564,-6.577566,1,14,6,49,FERIA,5,,0,,,50,145,9,0,,,2005,9,Badajoz,Menos_de_24h,3,POINT (-6.577566 38.490564),5
29383,2005060245,1.5,2005-09-10,38.40778,-6.667443,1,14,6,70,JEREZ DE LOS CABALLEROS,5,,0,,,75,135,16,1,,0.0,2005,9,Badajoz,Menos_de_24h,3,POINT (-6.667443 38.40778),5
29385,2005060250,3.0,2005-09-14,38.772583,-6.22233,1,14,6,4,ALANGE,5,,0,,,105,135,21,2,,,2005,9,Badajoz,Menos_de_24h,3,POINT (-6.22233 38.772583),5
29391,2005060271,1.5,2005-09-26,39.153063,-6.324077,1,14,6,31,CARMONITA,5,,0,,,60,210,21,0,,,2005,9,Badajoz,Menos_de_24h,3,POINT (-6.324077 39.153063),5
29592,2005100084,1.0,2005-01-22,39.238643,-4.765051,1,14,10,126,MONTÁNCHEZ,5,,0,,,60,85,7,1,,,2005,1,Cáceres,Menos_de_24h,,POINT (-4.765051 39.238643),5
31241,2005210240,1.5,2005-08-29,38.075415,-6.560619,1,4,21,7,ARACENA,5,,0,,,70,330,56,8,,,2005,8,Huelva,Menos_de_24h,3,POINT (-6.560619 38.075415),5
38170,2006060030,4.5,2006-07-16,38.456566,-6.695323,1,14,6,117,SALVATIERRA DE LOS BARROS,5,,0,,,120,220,25,2,,,2006,7,Badajoz,Menos_de_24h,3,POINT (-6.695323 38.456566),5
38173,2006060040,1.2,2006-05-25,38.900178,-6.365078,1,14,6,83,MÉRIDA,5,,0,,,25,40,5,1,,,2006,5,Badajoz,Menos_de_24h,2,POINT (-6.365078 38.900178),5
38180,2006060058,1.5,2006-06-06,39.193524,-7.026908,1,14,6,6,ALBURQUERQUE,5,,0,,,55,95,23,3,,,2006,6,Badajoz,Menos_de_24h,2,POINT (-7.026908 39.193524),5
38182,2006060062,10.0,2006-06-07,38.833705,-6.829054,1,14,6,15,BADAJOZ,5,,0,,,195,240,23,11,,,2006,6,Badajoz,Menos_de_24h,2,POINT (-6.829054 38.833705),5
38184,2006060064,7.0,2006-06-07,38.827926,-6.823585,1,14,6,15,BADAJOZ,5,,0,,,0,28,3,3,,,2006,6,Badajoz,Menos_de_24h,2,POINT (-6.823585 38.827926),5
38188,2006060068,2.0,2006-06-09,38.324682,-6.790088,1,14,6,70,JEREZ DE LOS CABALLEROS,5,,0,,,75,160,20,2,,,2006,6,Badajoz,Menos_de_24h,2,POINT (-6.790088 38.324682),5
38210,2006060112,1.0,2006-07-22,38.920516,-6.748131,1,14,6,902,PUEBLONUEVO DEL GUADIANA,5,,0,,,40,60,1,0,,,2006,7,Badajoz,Menos_de_24h,3,POINT (-6.748131 38.920516),5
38211,2006060113,2.5,2006-07-22,38.860985,-6.965513,1,14,6,15,BADAJOZ,5,,0,,,120,135,13,2,,,2006,7,Badajoz,Menos_de_24h,3,POINT (-6.965513 38.860985),5
38212,2006060114,3.0,2006-07-23,39.056208,-5.886082,1,14,6,44,DON BENITO,5,,0,,,45,60,7,0,,,2006,7,Badajoz,Menos_de_24h,3,POINT (-5.886082 39.056208),5
38214,2006060118,2.0,2006-07-24,38.894885,-6.953281,1,14,6,15,BADAJOZ,5,,0,,,135,153,6,1,,,2006,7,Badajoz,Menos_de_24h,3,POINT (-6.953281 38.894885),5
38216,2006060125,3.0,2006-07-25,38.887159,-5.974482,1,14,6,44,DON BENITO,5,,0,,,60,105,13,4,,,2006,7,Badajoz,Menos_de_24h,3,POINT (-5.974482 38.887159),5
38219,2006060130,3.5,2006-07-27,38.310313,-6.727111,1,14,6,70,JEREZ DE LOS CABALLEROS,5,,0,,1.0,80,160,23,3,,,2006,7,Badajoz,Menos_de_24h,3,POINT (-6.727111 38.310313),5
38220,2006060134,99.19,2006-07-28,38.343058,-7.209579,1,14,6,154,VILLANUEVA DEL FRESNO,5,,0,,,150,325,70,17,,,2006,7,Badajoz,Menos_de_24h,3,POINT (-7.209579 38.343058),5
38221,2006060140,2.0,2006-07-31,38.5126,-6.444822,1,14,6,54,FUENTE DEL MAESTRE,5,,0,,,65,75,2,0,,,2006,7,Badajoz,Menos_de_24h,3,POINT (-6.444822 38.5126),5
38223,2006060145,30.0,2006-08-03,38.675971,-6.613704,1,14,6,121,SANTA MARTA,5,,0,,,150,165,14,1,,,2006,8,Badajoz,Menos_de_24h,3,POINT (-6.613704 38.675971),5
38229,2006060161,10.0,2006-08-11,38.301274,-6.517764,1,14,6,141,VALENCIA DEL VENTOSO,5,,0,,,140,230,23,2,,,2006,8,Badajoz,Menos_de_24h,3,POINT (-6.517764 38.301274),5
38230,2006060164,1.0,2006-08-12,39.020532,-5.733628,1,14,6,153,VILLANUEVA DE LA SERENA,5,,0,,,75,85,8,2,,,2006,8,Badajoz,Menos_de_24h,3,POINT (-5.733628 39.020532),5
38234,2006060172,6.0,2006-08-30,39.247929,-4.755712,1,14,6,157,VILLARTA DE LOS MONTES,5,,0,,,90,120,14,2,,,2006,8,Badajoz,Menos_de_24h,3,POINT (-4.755712 39.247929),5
38238,2006060178,1.5,2006-09-13,38.883765,-6.206383,1,14,6,151,VILLAGONZALO,5,,0,,,85,170,17,2,,,2006,9,Badajoz,Menos_de_24h,3,POINT (-6.206383 38.883765),5
38239,2006060183,2.5,2006-08-15,38.367878,-6.779023,1,14,6,148,VALLE DE SANTA ANA,5,,0,,,110,405,30,3,,,2006,8,Badajoz,Menos_de_24h,3,POINT (-6.779023 38.367878),5
38241,2006060185,71.0,2006-07-21,38.837386,-6.961335,1,14,6,15,BADAJOZ,5,,0,,,570,1420,84,19,,,2006,7,Badajoz,Menos_de_24h,3,POINT (-6.961335 38.837386),5
38249,2006060202,2.0,2006-08-17,38.528013,-6.581196,1,14,6,99,"PARRA, LA",5,,0,,,75,130,11,0,,,2006,8,Badajoz,Menos_de_24h,3,POINT (-6.581196 38.528013),5
38251,2006060205,4.0,2006-08-24,39.023668,-6.422623,1,14,6,83,MÉRIDA,5,,0,,,95,145,20,3,,,2006,8,Badajoz,Menos_de_24h,3,POINT (-6.422623 39.023668),5
38263,2006060227,1.5,2006-08-15,39.022449,-6.026008,1,14,6,120,SANTA AMALIA,5,,0,,,75,180,9,2,,,2006,8,Badajoz,Menos_de_24h,3,POINT (-6.026008 39.022449),5
38268,2006069028,6.0,2006-09-07,38.558706,-6.77907,1,14,6,116,SALVALEÓN,5,,0,,,0,195,9,1,,,2006,9,Badajoz,Menos_de_24h,3,POINT (-6.77907 38.558706),5
38276,2006069061,5.0,2006-07-13,39.018488,-5.731667,1,14,6,153,VILLANUEVA DE LA SERENA,5,,0,,,0,190,9,1,,,2006,7,Badajoz,Menos_de_24h,3,POINT (-5.731667 39.018488),5
38278,2006069063,1.5,2006-07-14,38.999444,-5.747328,1,14,6,153,VILLANUEVA DE LA SERENA,5,,0,,,0,60,8,1,,,2006,7,Badajoz,Menos_de_24h,3,POINT (-5.747328 38.999444),5
38283,2006069072,10.0,2006-07-21,38.932384,-6.899438,1,14,6,15,BADAJOZ,5,,0,,,0,120,30,3,,,2006,7,Badajoz,Menos_de_24h,3,POINT (-6.899438 38.932384),5
38284,2006069073,1.0,2006-07-21,38.910854,-6.745207,1,14,6,15,BADAJOZ,5,,0,,,0,35,6,1,,,2006,7,Badajoz,Menos_de_24h,3,POINT (-6.745207 38.910854),5
38288,2006069084,1.25,2006-08-03,38.99132,-6.900975,1,14,6,15,BADAJOZ,5,,0,,,0,105,8,1,,,2006,8,Badajoz,Menos_de_24h,3,POINT (-6.900975 38.99132),5
38296,2006069112,1.0,2006-09-08,38.878043,-6.458174,1,14,6,12,ARROYO DE SAN SERVÁN,5,,0,,,130,155,4,0,,,2006,9,Badajoz,Menos_de_24h,3,POINT (-6.458174 38.878043),5
38302,2006069128,5.0,2006-09-20,39.349094,-4.750919,1,14,6,62,HELECHOSA DE LOS MONTES,5,,0,,,165,510,37,6,,,2006,9,Badajoz,Menos_de_24h,3,POINT (-4.750919 39.349094),5
38304,2006069132,1.0,2006-09-26,39.063131,-6.077952,1,14,6,44,DON BENITO,5,,0,,,90,105,6,0,,,2006,9,Badajoz,Menos_de_24h,3,POINT (-6.077952 39.063131),5
38308,2006069144,1.0,2006-10-05,39.140256,-5.31896,1,14,6,127,TALARRUBIAS,5,,0,,,30,40,3,1,,,2006,10,Badajoz,Menos_de_24h,4,POINT (-5.31896 39.140256),5
38309,2006069145,3.0,2006-10-07,39.079421,-5.597912,1,14,6,1,ACEDERA,5,,0,,,25,30,9,1,,,2006,10,Badajoz,Menos_de_24h,4,POINT (-5.597912 39.079421),5
38310,2006069146,1.0,2006-10-08,38.340876,-6.169592,1,14,6,136,USAGRE,5,,0,,,120,135,9,1,,,2006,10,Badajoz,Menos_de_24h,4,POINT (-6.169592 38.340876),5
38311,2006069149,6.0,2006-10-12,39.162618,-5.035038,1,14,6,63,HERRERA DEL DUQUE,5,,0,,,105,165,46,11,,,2006,10,Badajoz,Menos_de_24h,4,POINT (-5.035038 39.162618),5
38315,2006069159,4.53,2006-10-14,38.565012,-6.50621,1,14,6,49,FERIA,5,,0,,,120,145,13,1,,,2006,10,Badajoz,Menos_de_24h,4,POINT (-6.50621 38.565012),5
38317,2006069161,33.0,2006-09-15,38.936989,-6.398737,1,14,6,83,MÉRIDA,5,,0,,,115,265,24,4,,,2006,9,Badajoz,Menos_de_24h,3,POINT (-6.398737 38.936989),5
38320,2006069167,1.0,2006-10-15,39.073751,-6.750664,1,14,6,15,BADAJOZ,5,,0,,,65,70,1,0,,,2006,10,Badajoz,Menos_de_24h,4,POINT (-6.750664 39.073751),5
43744,2007060025,1.0,2007-06-11,39.038992,-5.897683,1,14,6,44,DON BENITO,5,,0,,,45,60,7,2,,,2007,6,Badajoz,Menos_de_24h,2,POINT (-5.897683 39.038992),5
43749,2007060034,1.5,2007-06-28,38.973285,-5.986082,1,14,6,80,MEDELLÍN,5,,0,,,45,95,3,0,,,2007,6,Badajoz,Menos_de_24h,2,POINT (-5.986082 38.973285),5
43750,2007060036,1.2,2007-06-29,39.106961,-5.464057,1,14,6,91,NAVALVILLAR DE PELA,5,,0,,,30,45,10,2,,,2007,6,Badajoz,Menos_de_24h,2,POINT (-5.464057 39.106961),5
43752,2007060038,3.0,2007-06-29,38.847942,-6.98129,1,14,6,15,BADAJOZ,5,,0,,,55,225,5,2,,,2007,6,Badajoz,Menos_de_24h,2,POINT (-6.98129 38.847942),5
43756,2007060043,1.0,2007-07-01,39.056251,-5.679415,1,14,6,44,DON BENITO,5,,0,,,175,235,7,1,,,2007,7,Badajoz,Menos_de_24h,3,POINT (-5.679415 39.056251),5
43758,2007060046,2.0,2007-07-04,38.848191,-6.949585,1,14,6,15,BADAJOZ,5,,0,,,280,339,37,5,,,2007,7,Badajoz,Menos_de_24h,3,POINT (-6.949585 38.848191),5
43763,2007060057,3.0,2007-07-09,38.989447,-6.295586,1,14,6,84,MIRANDILLA,5,,0,,,175,190,6,1,,,2007,7,Badajoz,Menos_de_24h,3,POINT (-6.295586 38.989447),5
43769,2007060071,4.0,2007-07-05,38.468934,-7.233749,1,14,6,7,ALCONCHEL,5,,0,,,80,160,29,3,,,2007,7,Badajoz,Menos_de_24h,3,POINT (-7.233749 38.468934),5
43789,2007060098,2.0,2007-07-23,38.676283,-6.534937,1,14,6,2,ACEUCHAL,5,,0,,,80,85,7,1,,,2007,7,Badajoz,Menos_de_24h,3,POINT (-6.534937 38.676283),5
43797,2007060118,5.0,2007-08-01,38.862464,-6.959893,1,14,6,15,BADAJOZ,5,,0,,,65,105,10,1,,,2007,8,Badajoz,Menos_de_24h,3,POINT (-6.959893 38.862464),5
43800,2007060121,1.0,2007-08-03,38.92996,-6.90695,1,14,6,15,BADAJOZ,5,,0,,,115,129,13,1,,,2007,8,Badajoz,Menos_de_24h,3,POINT (-6.90695 38.92996),5
43804,2007060128,4.8,2007-08-07,38.693741,-6.652501,1,14,6,121,SANTA MARTA,5,,0,,,95,105,7,1,,,2007,8,Badajoz,Menos_de_24h,3,POINT (-6.652501 38.693741),5
43823,2007060166,12.0,2007-07-20,38.974558,-6.324269,1,14,6,83,MÉRIDA,5,,0,,,75,225,25,5,,,2007,7,Badajoz,Menos_de_24h,3,POINT (-6.324269 38.974558),5
43834,2007060183,4.5,2007-06-30,38.85533,-6.662084,1,14,6,72,LOBÓN,5,,0,,,275,280,23,3,,,2007,6,Badajoz,Menos_de_24h,2,POINT (-6.662084 38.85533),5
43837,2007060190,2.0,2007-09-07,38.638511,-5.536325,1,14,6,18,BENQUERENCIA DE LA SERENA,5,,0,,,140,400,21,4,,,2007,9,Badajoz,Menos_de_24h,3,POINT (-5.536325 38.638511),5
43838,2007060191,2.5,2007-09-15,38.320213,-7.045863,1,14,6,154,VILLANUEVA DEL FRESNO,5,,0,,,30,45,5,0,,,2007,9,Badajoz,Menos_de_24h,3,POINT (-7.045863 38.320213),5
43850,2007060211,5.5,2007-06-06,38.7759,-5.214842,1,14,6,23,CABEZA DEL BUEY,5,,0,,,0,200,9,1,,,2007,6,Badajoz,Menos_de_24h,2,POINT (-5.214842 38.7759),5
43851,2007060213,3.0,2007-07-19,38.994373,-5.730773,1,14,6,153,VILLANUEVA DE LA SERENA,5,,0,,,0,100,7,1,,,2007,7,Badajoz,Menos_de_24h,3,POINT (-5.730773 38.994373),5
43858,2007060232,3.5,2007-07-29,38.749507,-6.976322,1,14,6,15,BADAJOZ,5,,0,,,125,175,13,5,,,2007,7,Badajoz,Menos_de_24h,3,POINT (-6.976322 38.749507),5
43860,2007060234,1.0,2007-09-22,38.845691,-5.736228,1,14,6,75,MAGACELA,5,,0,,,135,150,4,1,,,2007,9,Badajoz,Menos_de_24h,3,POINT (-5.736228 38.845691),5
43867,2007060246,26.0,2007-09-21,38.989014,-5.591346,1,14,6,28,CAMPANARIO,5,,0,,,130,2750,12,2,,,2007,9,Badajoz,Entre_1dia_y_1semana,3,POINT (-5.591346 38.989014),5
47175,2008060016,1.0,2008-04-06,38.981331,-5.924924,1,14,6,44,DON BENITO,5,,0,,,68,78,9,1,,,2008,4,Badajoz,Menos_de_24h,2,POINT (-5.924924 38.981331),5
47176,2008060017,2.0,2008-04-12,39.011718,-5.768508,1,14,6,153,VILLANUEVA DE LA SERENA,5,,0,,,120,130,3,1,,,2008,4,Badajoz,Menos_de_24h,2,POINT (-5.768508 39.011718),5
47177,2008060018,5.0,2008-04-30,38.870414,-6.69839,1,14,6,128,TALAVERA LA REAL,5,,0,,,105,125,5,1,,,2008,4,Badajoz,Menos_de_24h,2,POINT (-6.69839 38.870414),5
47194,2008060050,10.0,2008-07-01,39.241117,-7.049501,1,14,6,6,ALBURQUERQUE,5,,0,,,105,1715,44,5,,,2008,7,Badajoz,Entre_1dia_y_1semana,3,POINT (-7.049501 39.241117),5
47196,2008060057,3.0,2008-07-06,38.989831,-6.331416,1,14,6,83,MÉRIDA,5,,0,,,50,125,8,0,,,2008,7,Badajoz,Menos_de_24h,3,POINT (-6.331416 38.989831),5
47211,2008060085,10.0,2008-07-23,38.845699,-7.070879,1,14,6,15,BADAJOZ,5,,0,,,105,135,12,2,,,2008,7,Badajoz,Menos_de_24h,3,POINT (-7.070879 38.845699),5
47212,2008060086,2.0,2008-07-26,38.097034,-6.098137,1,14,6,105,PUEBLA DEL MAESTRE,5,,0,,,140,395,27,5,,,2008,7,Badajoz,Menos_de_24h,3,POINT (-6.098137 38.097034),5
47222,2008060103,10.0,2008-08-07,38.844071,-7.074852,1,14,6,15,BADAJOZ,5,,0,,,180,960,5,1,,,2008,8,Badajoz,Menos_de_24h,3,POINT (-7.074852 38.844071),5
47224,2008060107,1.0,2008-08-06,39.325321,-6.793663,1,14,6,6,ALBURQUERQUE,5,,0,,,115,194,18,2,,,2008,8,Badajoz,Menos_de_24h,3,POINT (-6.793663 39.325321),5
47233,2008060129,6.0,2008-08-20,38.434537,-6.174275,1,14,6,136,USAGRE,5,,0,,,290,335,25,5,,,2008,8,Badajoz,Menos_de_24h,3,POINT (-6.174275 38.434537),5
47238,2008060135,30.0,2008-08-19,38.874413,-6.87958,1,14,6,15,BADAJOZ,5,,0,,,0,175,6,2,,,2008,8,Badajoz,Menos_de_24h,3,POINT (-6.87958 38.874413),5
47258,2008060172,1.9,2008-11-25,39.24565,-7.101889,1,14,6,6,ALBURQUERQUE,5,,0,,,120,1230,11,0,,,2008,11,Badajoz,Menos_de_24h,4,POINT (-7.101889 39.24565),5
47259,2008060173,2.0,2008-11-27,38.713125,-5.803539,1,14,6,146,VALLE DE LA SERENA,5,,0,,,90,110,11,0,,,2008,11,Badajoz,Menos_de_24h,4,POINT (-5.803539 38.713125),5
47280,2008060215,2.0,2008-07-23,38.509328,-6.799567,1,14,6,116,SALVALEÓN,5,,0,,,230,230,1,0,,,2008,7,Badajoz,Menos_de_24h,3,POINT (-6.799567 38.509328),5
47282,2008060218,23.0,2008-07-29,38.465479,-6.434603,1,14,6,158,ZAFRA,5,,0,,,2535,2535,10,3,,,2008,7,Badajoz,Entre_1dia_y_1semana,3,POINT (-6.434603 38.465479),5
47283,2008060219,4.0,2008-07-29,38.83005,-6.918819,1,14,6,15,BADAJOZ,5,,0,,,205,205,2,1,,,2008,7,Badajoz,Menos_de_24h,3,POINT (-6.918819 38.83005),5
47301,2008060268,4.0,2008-11-02,39.293954,-7.057786,1,14,6,6,ALBURQUERQUE,5,,0,,,195,195,3,0,,,2008,11,Badajoz,Menos_de_24h,4,POINT (-7.057786 39.293954),5
51579,2009060016,3.0,2009-03-30,38.927991,-6.818188,1,14,6,15,BADAJOZ,5,,0,,,0,330,12,2,,,2009,3,Badajoz,Menos_de_24h,1,POINT (-6.818188 38.927991),5
51618,2009060100,1.0,2009-08-02,38.430239,-5.572465,1,14,6,101,PERALEDA DEL ZAUCEJO,5,,0,,,45,130,28,4,,,2009,8,Badajoz,Menos_de_24h,3,POINT (-5.572465 38.430239),5
51644,2009060154,8.1,2009-06-09,38.342298,-6.542094,1,14,6,142,VALVERDE DE BURGUILLOS,5,,0,,,134,314,17,1,,,2009,6,Badajoz,Menos_de_24h,2,POINT (-6.542094 38.342298),5
51654,2009060181,1.0,2009-09-03,38.205654,-5.547819,1,14,6,14,AZUAGA,5,,0,,,90,155,31,4,,,2009,9,Badajoz,Menos_de_24h,3,POINT (-5.547819 38.205654),5
51664,2009060203,4.0,2009-10-28,38.720776,-6.119167,1,14,6,98,PALOMAS,5,,0,,,140,170,7,1,,,2009,10,Badajoz,Menos_de_24h,4,POINT (-6.119167 38.720776),5
51673,2009060220,5.0,2009-06-02,38.706759,-5.791723,1,14,6,146,VALLE DE LA SERENA,5,,0,,,0,100,6,0,,,2009,6,Badajoz,Menos_de_24h,2,POINT (-5.791723 38.706759),5
57307,2010060046,1.5,2010-08-04,38.632417,-6.265265,1,14,6,113,RIBERA DEL FRESNO,5,,0,,,55,100,8,2,,,2010,8,Badajoz,Menos_de_24h,3,POINT (-6.265265 38.632417),5
57318,2010060069,4.5,2010-08-13,38.990334,-6.479951,1,14,6,83,MÉRIDA,5,,0,,,171,191,3,0,,,2010,8,Badajoz,Menos_de_24h,3,POINT (-6.479951 38.990334),5
57319,2010060070,8.0,2010-08-19,38.898044,-6.232802,1,14,6,145,VALVERDE DE MÉRIDA,5,,0,,,245,620,21,0,,,2010,8,Badajoz,Menos_de_24h,3,POINT (-6.232802 38.898044),5
57322,2010060075,6.0,2010-08-05,38.497741,-6.557444,1,14,6,49,FERIA,5,,0,,,240,635,15,7,,,2010,8,Badajoz,Menos_de_24h,3,POINT (-6.557444 38.497741),5
57324,2010060080,1.5,2010-07-19,38.935591,-6.383377,1,14,6,83,MÉRIDA,5,,0,,,265,275,13,0,,,2010,7,Badajoz,Menos_de_24h,3,POINT (-6.383377 38.935591),5
57337,2010060115,5.0,2010-09-07,38.260787,-6.596351,1,14,6,50,FREGENAL DE LA SIERRA,5,,0,,,120,240,28,4,,,2010,9,Badajoz,Menos_de_24h,3,POINT (-6.596351 38.260787),5
57341,2010060125,2.0,2010-09-13,38.221214,-5.639974,1,14,6,14,AZUAGA,5,,0,,,20,20,9,1,,,2010,9,Badajoz,Menos_de_24h,3,POINT (-5.639974 38.221214),5
57355,2010060155,5.0,2010-10-28,38.499416,-6.46627,1,14,6,54,FUENTE DEL MAESTRE,5,,0,,,120,150,13,3,,,2010,10,Badajoz,Menos_de_24h,4,POINT (-6.46627 38.499416),5
57362,2010060164,2.0,2010-09-13,38.457241,-6.990762,1,14,6,66,HIGUERA DE VARGAS,5,,0,,,210,210,12,0,,,2010,9,Badajoz,Menos_de_24h,3,POINT (-6.990762 38.457241),5
61249,2011060034,1.5,2011-06-24,38.919133,-6.621262,1,14,6,88,MONTIJO,5,,0,,,80,90,12,1,,,2011,6,Badajoz,Menos_de_24h,2,POINT (-6.621262 38.919133),5
61274,2011060078,1.0,2011-07-13,38.600252,-6.653921,1,14,6,901,VALDELACALZADA,5,,0,,,105,165,5,2,,,2011,7,Badajoz,Menos_de_24h,3,POINT (-6.653921 38.600252),5
61284,2011060091,1.0,2011-07-18,39.046403,-5.704032,1,14,6,153,VILLANUEVA DE LA SERENA,5,,0,,,155,3675,3,1,,,2011,7,Badajoz,Entre_1dia_y_1semana,3,POINT (-5.704032 39.046403),5
61285,2011060093,14.6,2011-07-18,38.683946,-6.107841,1,14,6,104,PUEBLA DE LA REINA,5,,0,,,460,2215,33,6,,,2011,7,Badajoz,Entre_1dia_y_1semana,3,POINT (-6.107841 38.683946),5
61289,2011060098,3.3,2011-07-21,38.589854,-6.587479,1,14,6,99,"PARRA, LA",5,,0,,,92,137,17,3,,,2011,7,Badajoz,Menos_de_24h,3,POINT (-6.587479 38.589854),5
61309,2011060128,1.0,2011-08-03,38.945894,-5.212913,1,14,6,48,ESPARRAGOSA DE LARES,5,,0,,,65,175,13,2,,,2011,8,Badajoz,Menos_de_24h,3,POINT (-5.212913 38.945894),5
61313,2011060135,35.0,2011-08-06,38.984451,-6.862147,1,14,6,15,BADAJOZ,5,,0,,,164,165,24,3,,,2011,8,Badajoz,Menos_de_24h,3,POINT (-6.862147 38.984451),5
61314,2011060136,1.0,2011-08-07,38.926628,-6.951215,1,14,6,15,BADAJOZ,5,,0,,,160,340,6,2,,,2011,8,Badajoz,Menos_de_24h,3,POINT (-6.951215 38.926628),5
61320,2011060146,1.0,2011-08-12,38.493044,-6.49491,1,14,6,54,FUENTE DEL MAESTRE,5,,0,,,170,180,15,1,,,2011,8,Badajoz,Menos_de_24h,3,POINT (-6.49491 38.493044),5
61327,2011060153,1.0,2011-08-18,39.067484,-5.792679,1,14,6,111,RENA,5,,0,,,50,300,8,1,,,2011,8,Badajoz,Menos_de_24h,3,POINT (-5.792679 39.067484),5
61333,2011060164,10.0,2011-08-25,38.896503,-6.353558,1,14,6,83,MÉRIDA,5,,0,,,60,85,9,1,,,2011,8,Badajoz,Menos_de_24h,3,POINT (-6.353558 38.896503),5
61335,2011060166,1.0,2011-08-26,39.220425,-7.179933,1,14,6,37,"CODOSERA, LA",5,,0,,,55,1565,46,2,,,2011,8,Badajoz,Entre_1dia_y_1semana,3,POINT (-7.179933 39.220425),5
61337,2011060169,2.0,2011-08-28,39.04461,-6.326802,1,14,6,9,ALJUCÉN,5,,0,,,810,1005,11,2,,,2011,8,Badajoz,Menos_de_24h,3,POINT (-6.326802 39.04461),5
61338,2011060172,2.5,2011-08-29,38.282471,-6.092634,1,14,6,150,VILLAGARCÍA DE LA TORRE,5,,0,,,75,90,9,2,,,2011,8,Badajoz,Menos_de_24h,3,POINT (-6.092634 38.282471),5
